Fecha,Hora,Comuna,Accdtes.,Causas,Muertos,Graves,Menos Graves,Leves,Ilesos,Urbano/Rural,Calleuno,Calledos,Frentenumero,Ruta,Ubicación km,Direccion,Latitud,Longitud
01/01/2010,02:54,IQUIQUE,Colisión,Conducción no atento condiciones transito momento,0,0,0,0,0,URBANO,PEDRO PRADO,ORELLA,,,,"IQUIQUE, PEDRO PRADO, ORELLA",-20.2212841,-70.1348904
01/01/2010,04:14,IQUIQUE,Choque,Conducción no atento condiciones transito momento,0,0,0,0,0,URBANO,AV. LA TIRANA,CALLE 6,,,,"IQUIQUE, AV. LA TIRANA, CALLE 6",-20.2307033,-70.1356692
02/01/2010,21:39,IQUIQUE,Atropello,No respetar derecho preferente de paso a peatón,0,0,1,0,1,URBANO,JUAN MARTINEZ,SARGENTO ALDEA,,,,"IQUIQUE, JUAN MARTINEZ, SARGENTO ALDEA",-20.2160713,-70.1451094
03/01/2010,11:30,PICA,Volcadura,Perdida control vehículo,0,0,0,0,1,RURAL,CAMINO PRIVADO MINERA COLLAHUASI,,24,,,"PICA, CAMINO PRIVADO MINERA COLLAHUASI, 24",-20.9814192,-68.6379674
03/01/2010,16:50,IQUIQUE,Choque,No respetar derecho preferente de paso a peatón,0,0,0,0,1,URBANO,THOMPSON,OSCAR BONILLA,,,,"IQUIQUE, THOMPSON, OSCAR BONILLA",-20.2154831,-70.1401029
03/01/2010,22:15,IQUIQUE,Atropello,Conducción no atento condiciones transito momento,0,0,0,1,1,URBANO,THOMPSON,VIVAR,,,,"IQUIQUE, THOMPSON, VIVAR",-20.2148742,-70.1485661
04/01/2010,11:15,IQUIQUE,Atropello,Conducción no atento condiciones transito momento,0,0,0,1,1,URBANO,RAMIREZ,,1270,,,"IQUIQUE, RAMIREZ, 1270",-20.2202073,-70.1494388
05/01/2010,22:30,IQUIQUE,Colisión,Conducción no atento condiciones transito momento,0,0,0,1,1,URBANO,RANCAGUA,CACHARPAYAS,,,,"IQUIQUE, RANCAGUA, CACHARPAYAS",-20.2350388,-70.1325303
06/01/2010,01:20,IQUIQUE,Choque,Conducción no atento condiciones transito momento,0,0,0,0,2,URBANO,RAMIREZ,,1162,,,"IQUIQUE, RAMIREZ, 1162",-20.2191755,-70.1493946
06/01/2010,19:00,IQUIQUE,Atropello,Conducción no atento condiciones transito momento,0,0,0,1,1,URBANO,ERRAZURIS,THOMPSON,,,,"IQUIQUE, ERRAZURIS, THOMPSON",-20.2152505,-70.1435156
06/01/2010,19:15,IQUIQUE,Colisión,"Señalización, desobedecer señal pare",0,1,0,0,1,URBANO,RAMIREZ,GOROSTIAGA,,,,"IQUIQUE, RAMIREZ, GOROSTIAGA",-20.2168749,-70.1494213
06/01/2010,23:10,IQUIQUE,Colisión,"Señalización, desobedecer señal ceda el paso",0,0,0,4,2,URBANO,18 DE SEPTIEMBRE,LIBERTAD,,,,"IQUIQUE, 18 DE SEPTIEMBRE, LIBERTAD",-20.2307033,-70.1356692
07/01/2010,14:30,ALTO HOSPICIO,Atropello,"Señalización, desobedecer luz roja de semáforo",0,0,1,0,0,URBANO,AV. LOS ALAMOS CON RAMON PEREZ OPAZO,,2500,,,"ALTO HOSPICIO, AV. LOS ALAMOS CON RAMON PEREZ OPAZO, 2500",-20.2740456,-70.1008643
07/01/2010,19:19,IQUIQUE,Colisión,Conducción no atento condiciones transito momento,0,0,0,0,2,URBANO,ARTURO PRAT,AEROPUERTO,,,,"IQUIQUE, ARTURO PRAT, AEROPUERTO",-20.244478,-70.1410328
08/01/2010,16:30,IQUIQUE,Colisión,"Señalización, desobedecer luz roja de semáforo",0,0,0,1,2,URBANO,TADEO HAENKE,GENARO GALLO,,,,"IQUIQUE, TADEO HAENKE, GENARO GALLO",-20.2394749,-70.1403552
08/01/2010,22:36,IQUIQUE,Volcadura,"Señalización, desobedecer señal ceda el paso",0,1,0,1,0,URBANO,la torre,21 de mayo,,,,"IQUIQUE, la torre, 21 de mayo",-20.2307033,-70.1356692
09/01/2010,09:55,IQUIQUE,Colisión,Conducción no atento condiciones transito momento,0,0,0,1,1,URBANO,OSCAR BONILLA,DIEGO PORTALES,,,,"IQUIQUE, OSCAR BONILLA, DIEGO PORTALES",-20.2297964,-70.1422898
09/01/2010,19:00,ALTO HOSPICIO,Atropello,"Vehiculo en retroceso, conducir",0,0,0,1,0,URBANO,AV. LOS CONODRES CON TARAPACA,,2380,,,"ALTO HOSPICIO, AV. LOS CONODRES CON TARAPACA, 2380",-20.2758634,-70.0977978
10/01/2010,04:20,IQUIQUE,Colisión,Conducción en estado de ebriedad,0,0,2,2,0,URBANO,OHIGGINS,VIVAR,,,,"IQUIQUE, OHIGGINS, VIVAR",-20.218536,-70.1488892
11/01/2010,01:00,IQUIQUE,Atropello,Conducción no atento condiciones transito momento,0,0,0,1,1,URBANO,AVDA. CHIPANA,,,,,"IQUIQUE, AVDA. CHIPANA",-20.2307033,-70.1356692
11/01/2010,10:30,IQUIQUE,Colisión,"Señalización, desobedecer señal pare",0,0,0,1,1,URBANO,AVDA. ARTURO PRAT,,,,,"IQUIQUE, AVDA. ARTURO PRAT",-20.2484469,-70.1381101
11/01/2010,12:10,IQUIQUE,Colisión,No respetar derecho preferente de paso a vehículo,0,0,0,1,1,URBANO,OBISPO LABBE,MANUEL RODRIGUEZ,,,,"IQUIQUE, OBISPO LABBE, MANUEL RODRIGUEZ",-20.2233179,-70.1505699
11/01/2010,20:30,ALTO HOSPICIO,Atropello,"Vehiculo en retroceso, conducir",0,0,0,1,1,URBANO,AV. LOS CONDORES CON LA GRANJA,,3290,,,"ALTO HOSPICIO, AV. LOS CONDORES CON LA GRANJA, 3290",-20.2719484,-70.1029629
11/01/2010,21:40,ALTO HOSPICIO,Atropello,"Peatón, cruza calzada forma sorpresiva o descuidada",0,0,1,0,1,URBANO,AV. LAS AMERICAS CON CARMELA CARVAJAL,,2900,,,"ALTO HOSPICIO, AV. LAS AMERICAS CON CARMELA CARVAJAL, 2900",-20.2800542,-70.1007563
12/01/2010,14:00,ALTO HOSPICIO,Atropello,"Peatón, cruza calzada forma sorpresiva o descuidada",0,0,1,1,0,URBANO,PASAJE SAN FRANCISCO,,4151,,,"ALTO HOSPICIO, PASAJE SAN FRANCISCO, 4151",-20.278689,-70.0910657
12/01/2010,20:20,IQUIQUE,Choque,Conducción no atento condiciones transito momento,0,0,0,0,1,URBANO,gomez carreño,,,,,"IQUIQUE, gomez carreño",-20.2333352,-70.1324357
13/01/2010,02:40,IQUIQUE,Colisión,Conducción no atento condiciones transito momento,0,0,0,0,2,URBANO,avda. arturo prat,,,,,"IQUIQUE, avda. arturo prat",-20.2484469,-70.1381101
14/01/2010,15:50,IQUIQUE,Colisión,Conducción no atento condiciones transito momento,0,0,0,1,2,URBANO,HEROES DE LA CONCEPCION,CESPEDES Y GONZALEZ,,,,"IQUIQUE, HEROES DE LA CONCEPCION, CESPEDES Y GONZALEZ",-20.2247382,-70.139754
15/01/2010,12:25,ALTO HOSPICIO,Atropello,No respetar derecho preferente de paso a peatón,0,0,1,0,1,URBANO,LOS MANZANOS CON LOS ALAMOS,,2590,,,"ALTO HOSPICIO, LOS MANZANOS CON LOS ALAMOS, 2590",-20.2686722,-70.1049169
15/01/2010,18:00,IQUIQUE,Choque,"Fallas mecánicas, dirección",0,0,0,2,3,URBANO,TADEO HAENKE,CERRO DRAGON,,,,"IQUIQUE, TADEO HAENKE, CERRO DRAGON",-20.2386682,-70.1296108
16/01/2010,08:00,IQUIQUE,Colisión,Conducción no atento condiciones transito momento,0,0,0,0,2,URBANO,LOS RIELES,ORELLA,,,,"IQUIQUE, LOS RIELES, ORELLA",-20.2208235,-70.1432206
17/01/2010,01:35,IQUIQUE,Colisión,Conducción no atento condiciones transito momento,0,0,1,0,1,URBANO,EMILIO RECABARREN,ARTURO PRAT,,,,"IQUIQUE, EMILIO RECABARREN, ARTURO PRAT",-20.23336,-70.14116
17/01/2010,15:45,ALTO HOSPICIO,Choque,Conducción no atento condiciones transito momento,0,0,2,0,2,URBANO,AV. LAS AMERICAS CON PAULA JARAQUEMADA,,2890,,,"ALTO HOSPICIO, AV. LAS AMERICAS CON PAULA JARAQUEMADA, 2890",-20.2828255,-70.1020691
18/01/2010,17:00,ALTO HOSPICIO,Atropello,Causas no determinadas,0,0,0,2,0,URBANO,AV. LOS ALAMOS CON LOS NOGALES,,3200,,,"ALTO HOSPICIO, AV. LOS ALAMOS CON LOS NOGALES, 3200",-20.2662507,-70.1025442
18/01/2010,17:35,IQUIQUE,Colisión,Perdida control vehículo,0,0,0,1,1,URBANO,HEROES DE LA CONCEPCION,DIEGO PORTALES,,,,"IQUIQUE, HEROES DE LA CONCEPCION, DIEGO PORTALES",-20.2300539,-70.1409672
19/01/2010,16:50,IQUIQUE,Choque,Conducción no atento condiciones transito momento,0,0,0,1,2,URBANO,PEDRO PRADO,,2520,,,"IQUIQUE, PEDRO PRADO, 2520",-20.2355547,-70.1363476
20/01/2010,05:45,IQUIQUE,Colisión,"Señalización, desobedecer señal pare",0,0,0,3,2,URBANO,OHHIGGINS,OBISPO LABBE,,,,"IQUIQUE, OHHIGGINS, OBISPO LABBE",-20.2184392,-70.1503783
21/01/2010,12:50,IQUIQUE,Choque,Conducción no atento condiciones transito momento,0,0,0,0,1,URBANO,VIVAR,SARGENTE ALDEA,,,,"IQUIQUE, VIVAR, SARGENTE ALDEA",-20.2159485,-70.1486532
21/01/2010,14:00,IQUIQUE,Choque,Conducción no atento condiciones transito momento,0,0,0,0,3,URBANO,DIEGO PORTALES,AVENIDA  PRAT,,,,"IQUIQUE, DIEGO PORTALES, AVENIDA PRAT",-20.2307033,-70.1356692
22/01/2010,13:50,IQUIQUE,Choque,Conducción no atento condiciones transito momento,0,0,0,0,1,URBANO,PROGRESO,,1926,,,"IQUIQUE, PROGRESO, 1926",-20.2272577,-70.1321482
22/01/2010,22:50,IQUIQUE,Atropello,"Peatón, cruza calzada forma sorpresiva o descuidada",0,0,0,1,1,URBANO,18 dfe septiembre,diego portales,,,,"IQUIQUE, 18 dfe septiembre, diego portales",-20.2306665,-70.1371297
23/01/2010,12:00,IQUIQUE,Colisión,"Señalización, desobedecer señal ceda el paso",0,0,0,3,1,URBANO,FARNCISCO BILBAO,BALMACEDA,,,,"IQUIQUE, FARNCISCO BILBAO, BALMACEDA",-20.2653785,-70.126922
24/01/2010,16:50,ALTO HOSPICIO,Colisión,Conducción contra sentido del transito,0,0,0,2,2,URBANO,LOS NOGALES,,3100,,,"ALTO HOSPICIO, LOS NOGALES, 3100",-20.2669704,-70.0993167
24/01/2010,18:40,IQUIQUE,Colisión,Conducción no atento condiciones transito momento,0,0,0,0,2,URBANO,LIBERTAD,OSCAR BONILLA,,,,"IQUIQUE, LIBERTAD, OSCAR BONILLA",-20.2194645,-70.1403842
25/01/2010,10:50,IQUIQUE,Colisión,Conducción no atento condiciones transito momento,0,0,0,1,2,URBANO,AV. ARTURO PRAT,DIEGO PORTALES,,,,"IQUIQUE, AV. ARTURO PRAT, DIEGO PORTALES",-20.244478,-70.1410328
26/01/2010,15:50,IQUIQUE,Colisión,Conducción no atento condiciones transito momento,0,0,0,0,2,URBANO,FRESIA,,231,,,"IQUIQUE, FRESIA, 231",-20.2280658,-70.1358063
26/01/2010,19:15,POZO ALMONTE,Volcadura,Perdida control vehículo,0,0,0,1,1,URBANO,INTERNA QUEBRADA BLANCA,,62,,,"POZO ALMONTE, INTERNA QUEBRADA BLANCA, 62",-20.2570503,-69.7857064
26/01/2010,22:45,IQUIQUE,Atropello,Conducción no atento condiciones transito momento,0,0,1,1,0,URBANO,TADEO HAENKE,HEROES DE LA CONCEPCION,,,,"IQUIQUE, TADEO HAENKE, HEROES DE LA CONCEPCION",-20.2379949,-70.1442259
28/01/2010,01:15,IQUIQUE,Colisión,"Fallas mecánicas, eléctrico",0,0,0,2,0,URBANO,GENARO GALLO,AV. PLAYA BRAVA,,,,"IQUIQUE, GENARO GALLO, AV. PLAYA BRAVA",-20.2422792,-70.1413978
28/01/2010,02:15,IQUIQUE,Colisión,"Señalización, desobedecer señal pare",0,0,0,1,2,URBANO,CESPEDES Y GONZALEZ,AMUNATEGUI,,,,"IQUIQUE, CESPEDES Y GONZALEZ, AMUNATEGUI",-20.2244134,-70.14698
28/01/2010,22:30,ALTO HOSPICIO,Atropello,"Peatón, ebriedad del",0,1,0,0,1,URBANO,AV. COSTANERA,,3234,,,"ALTO HOSPICIO, AV. COSTANERA, 3234",-20.2686722,-70.1049169
29/01/2010,00:45,IQUIQUE,Colisión,Conducción no atento condiciones transito momento,0,0,3,0,0,URBANO,PEDRO PRADO,,2380,,,"IQUIQUE, PEDRO PRADO, 2380",-20.2316357,-70.1354618
29/01/2010,09:31,POZO ALMONTE,Otros,Causas no determinadas,0,0,0,0,2,URBANO,calle peña chica,,256,,,"POZO ALMONTE, calle peña chica, 256",-20.2654028,-69.7831943
30/01/2010,00:45,IQUIQUE,Colisión,Conducción no atento condiciones transito momento,0,0,0,1,0,URBANO,CIRCUNVALACION,SOTOMAYOR,,,,"IQUIQUE, CIRCUNVALACION, SOTOMAYOR",-20.2111333,-70.1416166
30/01/2010,20:00,IQUIQUE,Atropello,Conducción no atento condiciones transito momento,0,1,0,0,1,URBANO,TADEO HAENKE,PEDRO PRADO,,,,"IQUIQUE, TADEO HAENKE, PEDRO PRADO",-20.2414031,-70.1341858
31/01/2010,21:10,IQUIQUE,Atropello,Conducción no atento condiciones transito momento,0,0,0,1,1,URBANO,JUAN GIRAOS,,1649,,,"IQUIQUE, JUAN GIRAOS, 1649",-20.2414367,-70.1342598
01/02/2010,12:55,IQUIQUE,Choque,Conducción no atento condiciones transito momento,0,0,0,0,2,URBANO,HEROES DE LA CONCEPCION,,2555,,,"IQUIQUE, HEROES DE LA CONCEPCION, 2555",-20.2126288,-70.1385179
02/02/2010,13:26,IQUIQUE,Choque,Conducción no atento condiciones transito momento,0,0,0,0,2,URBANO,CIRCUNVALACION,MANZANA 5,,,,"IQUIQUE, CIRCUNVALACION, MANZANA 5",-20.230544,-70.129033
03/02/2010,16:10,IQUIQUE,Colisión,Conducción no atento condiciones transito momento,0,0,0,1,1,URBANO,MAULE,LAS CARPAS,,,,"IQUIQUE, MAULE, LAS CARPAS",-20.2374095,-70.1293885
03/02/2010,19:30,IQUIQUE,Colisión,"Señalización, desobedecer señal pare",0,0,0,5,0,URBANO,SALVADOR ALLENDE,RAMON PEREZ OPAZO,,,,"IQUIQUE, SALVADOR ALLENDE, RAMON PEREZ OPAZO",-20.2542691,-70.1314071
03/02/2010,21:15,POZO ALMONTE,Colisión,Conducción no atento condiciones transito momento,0,0,0,1,1,URBANO,comercio con calle cascada,,0,,,"POZO ALMONTE, comercio con calle cascada, 0",-20.2570503,-69.7857064
04/02/2010,08:10,IQUIQUE,Colisión,Conducción bajo la influencia del alcohol,0,0,0,1,1,URBANO,LOS MAITENES,ORELLA,,,,"IQUIQUE, LOS MAITENES, ORELLA",-20.2213609,-70.1334644
04/02/2010,11:55,IQUIQUE,Choque,"Señalización, desobedecer señal ceda el paso",0,0,0,0,2,URBANO,OBISPO LABBE,RIQUELME,,,,"IQUIQUE, OBISPO LABBE, RIQUELME",-20.2213589,-70.1504909
05/02/2010,14:30,IQUIQUE,Colisión,Conducción no atento condiciones transito momento,0,0,0,1,1,URBANO,18 DE SEPTIEMBRE,SARGENTO ALDEA,,,,"IQUIQUE, 18 DE SEPTIEMBRE, SARGENTO ALDEA",-20.2161654,-70.142953
05/02/2010,16:00,IQUIQUE,Choque,Conducción no atento condiciones transito momento,0,0,0,0,2,URBANO,SOTOMAYOR,AVENIDA PRAT,,,,"IQUIQUE, SOTOMAYOR, AVENIDA PRAT",-20.2111333,-70.1416166
06/02/2010,21:50,IQUIQUE,Colisión,Conducción no atento condiciones transito momento,0,0,0,1,1,URBANO,SANTIAGO POLANCO,YABRICOYA,,,,"IQUIQUE, SANTIAGO POLANCO, YABRICOYA",-20.2473355,-70.1356494
08/02/2010,13:15,IQUIQUE,Colisión,No respetar derecho preferente de paso a vehículo,0,0,0,2,1,URBANO,18 DE SEPTIEMBRE,ORELLA,,,,"IQUIQUE, 18 DE SEPTIEMBRE, ORELLA",-20.2208235,-70.1432206
08/02/2010,15:05,IQUIQUE,Choque,Conducción no atento condiciones transito momento,0,0,1,2,2,URBANO,ORELLA,BARROS ARANA,,,,"IQUIQUE, ORELLA, BARROS ARANA",-20.2205893,-70.147605
08/02/2010,17:35,IQUIQUE,Colisión,Conducción no atento condiciones transito momento,0,0,0,0,3,URBANO,AV. HEROES DE LA CONCEPCION,LATORRE,,,,"IQUIQUE, AV. HEROES DE LA CONCEPCION, LATORRE",-20.2265534,-70.1400001
09/02/2010,08:45,IQUIQUE,Colisión,Conducción no atento condiciones transito momento,0,0,0,0,2,URBANO,AV. HÉROES DE LA CONCEPCIÓN,ORELLA,,,,"IQUIQUE, AV. HÉROES DE LA CONCEPCIÓN, ORELLA",-20.2210371,-70.1394955
09/02/2010,13:35,IQUIQUE,Choque,Conducción no atento condiciones transito momento,0,0,0,0,2,URBANO,SOTOMAYOR,,657,,,"IQUIQUE, SOTOMAYOR, 657",-20.2110999,-70.14873
09/02/2010,20:30,IQUIQUE,Atropello,"Peatón, ebriedad del",0,0,0,1,1,URBANO,AV. LA TIRANA,PJE. VALLE VERDE,,,,"IQUIQUE, AV. LA TIRANA, PJE. VALLE VERDE",-20.2543166,-70.1260602
10/02/2010,16:40,IQUIQUE,Atropello,"Peatón, imprudencia del",0,0,0,1,1,URBANO,RAMIREZ,GOROSTIAGA,,,,"IQUIQUE, RAMIREZ, GOROSTIAGA",-20.2168749,-70.1494213
11/02/2010,10:20,IQUIQUE,Colisión,Conducción no atento condiciones transito momento,0,0,0,0,2,URBANO,AV. PEDRO PRADO,,2345,,,"IQUIQUE, AV. PEDRO PRADO, 2345",-20.2325421,-70.1359347
11/02/2010,13:00,IQUIQUE,Colisión,Adelantamiento sin el espacio y tiempo suficiente,0,0,0,3,0,URBANO,GENARO GALLO,LAS ROSAS,,,,"IQUIQUE, GENARO GALLO, LAS ROSAS",-20.2373067,-70.139562
11/02/2010,22:20,ALTO HOSPICIO,Atropello,"Peatón, imprudencia del",0,0,0,1,1,URBANO,SALITRERA ROSARIO,,2988,,,"ALTO HOSPICIO, SALITRERA ROSARIO, 2988",-20.2713462,-70.1020473
12/02/2010,00:13,IQUIQUE,Choque,Conducción no atento condiciones transito momento,0,0,0,1,2,URBANO,AVD. LA TIRANA,,2913,,,"IQUIQUE, AVD. LA TIRANA, 2913",-20.2388841,-70.1288631
12/02/2010,14:15,IQUIQUE,Colisión,No respetar derecho preferente de paso a vehículo,0,0,0,2,1,URBANO,MANUEL RODRIGUEZ,18 DE SEPTIEMBRE,,,,"IQUIQUE, MANUEL RODRIGUEZ, 18 DE SEPTIEMBRE",-20.2236,-70.1434542
13/02/2010,14:27,IQUIQUE,Colisión,Conducción no atento condiciones transito momento,0,0,0,0,2,URBANO,OSCAR BONILLA,PASAJE 2,,,,"IQUIQUE, OSCAR BONILLA, PASAJE 2",-20.2264987,-70.1411131
14/02/2010,05:50,IQUIQUE,Choque,Conducción sin mantener distancia razonable ni prudente,0,0,0,0,2,URBANO,AVDA. ARTURO PRAT,,4200,,,"IQUIQUE, AVDA. ARTURO PRAT, 4200",-20.2481527,-70.1380287
14/02/2010,17:00,IQUIQUE,Colisión,Conducción contra sentido del transito,0,0,0,0,2,URBANO,LAS ZAMPOÑAS,PEDRO DE VALDIVIA,,,,"IQUIQUE, LAS ZAMPOÑAS, PEDRO DE VALDIVIA",-20.2339293,-70.1340386
15/02/2010,15:25,IQUIQUE,Colisión,Conducción no atento condiciones transito momento,0,0,0,1,2,URBANO,AVDA. CERRO DRAGÓN,EL MONTE,,,,"IQUIQUE, AVDA. CERRO DRAGÓN, EL MONTE",-20.2455526,-70.1292691
15/02/2010,16:00,IQUIQUE,Colisión,Conducción no atento condiciones transito momento,0,0,0,1,1,URBANO,ESMERALDA,RAMIREZ,,,,"IQUIQUE, ESMERALDA, RAMIREZ",-20.2307033,-70.1356692
16/02/2010,12:07,IQUIQUE,Colisión,Conducción sin mantener distancia razonable ni prudente,0,0,0,0,2,URBANO,SANTIAGO POLANCO,AVDA. PLAYA BRAVA,,,,"IQUIQUE, SANTIAGO POLANCO, AVDA. PLAYA BRAVA",-20.2478923,-70.1368759
17/02/2010,11:04,IQUIQUE,Colisión,Conducción sin mantener distancia razonable ni prudente,0,0,0,3,1,URBANO,AVDA. LA TIRANA,,1582,,,"IQUIQUE, AVDA. LA TIRANA, 1582",-20.2241521,-70.1313395
17/02/2010,19:35,IQUIQUE,Colisión,No respetar derecho preferente de paso a peatón,0,0,0,2,3,URBANO,AVDA. FRANCISCO VERGARA,RAMON OPAZO,,,,"IQUIQUE, AVDA. FRANCISCO VERGARA, RAMON OPAZO",-20.255036,-70.1327603
19/02/2010,01:00,IQUIQUE,Colisión,No respetar derecho preferente de paso a vehículo,0,0,0,1,1,URBANO,AVDA. CASTRI RAMOS,AVDA. CERRO DRAGON,,,,"IQUIQUE, AVDA. CASTRI RAMOS, AVDA. CERRO DRAGON",-20.2443662,-70.129305
20/02/2010,11:00,ALTO HOSPICIO,Colisión,Conducción no atento condiciones transito momento,0,0,0,1,1,URBANO,AVDA. CIRCUNVALACION CRUCE CON CALLE SAN PABLO,AVDA. CIRCUNVALACION CRUCE CON CALLE SAN PALBO,,,,"ALTO HOSPICIO, AVDA. CIRCUNVALACION CRUCE CON CALLE SAN PABLO, AVDA. CIRCUNVALACION CRUCE CON CALLE SAN PALBO",-20.2686722,-70.1049169
20/02/2010,12:10,IQUIQUE,Colisión,No respetar derecho preferente de paso a vehículo,0,0,0,1,2,URBANO,21 DE MAYO,LATORRE,,,,"IQUIQUE, 21 DE MAYO, LATORRE",-20.2307033,-70.1356692
22/02/2010,13:36,IQUIQUE,Colisión,No respetar derecho preferente de paso a vehículo,0,0,0,0,2,URBANO,ELIAS LAFERTE,ORELLA,,,,"IQUIQUE, ELIAS LAFERTE, ORELLA",-20.2307033,-70.1356692
23/02/2010,17:30,ALTO HOSPICIO,Colisión,Conducción no atento condiciones transito momento,0,0,0,2,0,URBANO,AVDA. LOS ALAMSO CON AVDA. CIRCUNVALACION,AVDA. CIRCUNVALACION CON AVDA. LOS ALAMOS,,,,"ALTO HOSPICIO, AVDA. LOS ALAMSO CON AVDA. CIRCUNVALACION, AVDA. CIRCUNVALACION CON AVDA. LOS ALAMOS",-20.2722788,-70.1097974
23/02/2010,18:50,IQUIQUE,Atropello,No respetar derecho preferente de paso a peatón,0,0,0,1,1,URBANO,SALITRERA VICTORIA,MAPOCHO,,,,"IQUIQUE, SALITRERA VICTORIA, MAPOCHO",-20.2049542,-70.1369169
24/02/2010,11:40,IQUIQUE,Colisión,No respetar derecho preferente de paso a vehículo,0,0,0,0,2,URBANO,BULNES,AMUNÁTEGUI,,,,"IQUIQUE, BULNES, AMUNÁTEGUI",-20.2195518,-70.1467191
25/02/2010,11:20,IQUIQUE,Atropello,"Peatón, ebriedad del",0,0,0,1,1,URBANO,CHINTAGUAY,AVDA. PEDRO PRADO,,,,"IQUIQUE, CHINTAGUAY, AVDA. PEDRO PRADO",-20.226475,-70.1352834
25/02/2010,16:00,POZO ALMONTE,Choque,Conducción no atento condiciones transito momento,0,0,0,0,1,URBANO,BALMACEDA,,250,,,"POZO ALMONTE, BALMACEDA, 250",-20.2598135,-69.7865946
25/02/2010,23:20,POZO ALMONTE,Atropello,"Peatón, cruza calzada forma sorpresiva o descuidada",0,0,1,0,0,URBANO,SANFUENTES,,700,,,"POZO ALMONTE, SANFUENTES, 700",-20.2570503,-69.7857064
26/02/2010,22:31,IQUIQUE,Colisión,Conducción sin mantener distancia razonable ni prudente,0,0,0,0,2,URBANO,21 DE MAYO,ORELLA,,,,"IQUIQUE, 21 DE MAYO, ORELLA",-20.2208923,-70.1421601
27/02/2010,17:20,IQUIQUE,Colisión,No respetar derecho preferente de paso a vehículo,0,0,0,0,2,URBANO,CESPEDES Y GONZÁLEZ,GENARO GALLO,,,,"IQUIQUE, CESPEDES Y GONZÁLEZ, GENARO GALLO",-20.2249004,-70.1370717
28/02/2010,15:20,IQUIQUE,Colisión,No respetar derecho preferente de paso a vehículo,0,0,1,2,1,URBANO,ESMERALDA,AMUNATEGUI,,,,"IQUIQUE, ESMERALDA, AMUNATEGUI",-20.2176315,-70.1465983
28/02/2010,18:00,IQUIQUE,Atropello,Conducción no atento condiciones transito momento,0,1,0,0,1,URBANO,AVDA. PRAT,JOSÉ MIGUEL CARRERA,,,,"IQUIQUE, AVDA. PRAT, JOSÉ MIGUEL CARRERA",-20.2266274,-70.1421023
01/03/2010,02:00,IQUIQUE,Colisión,No respetar derecho preferente de paso a vehículo,0,0,0,1,1,URBANO,12 DE FEBRERO,TARAPACA,,,,"IQUIQUE, 12 DE FEBRERO, TARAPACA",-20.2198336,-70.1414293
01/03/2010,11:30,ALTO HOSPICIO,Atropello,Perdida control vehículo,0,0,0,1,1,URBANO,HUNATAJAYA CON LOS MANZANOS,,2590,,,"ALTO HOSPICIO, HUNATAJAYA CON LOS MANZANOS, 2590",-20.2623469,-70.1047977
01/03/2010,13:20,IQUIQUE,Colisión,Conducción sin mantener distancia razonable ni prudente,0,0,0,0,2,URBANO,AVDA. ARTURO PRAT,,2330,,,"IQUIQUE, AVDA. ARTURO PRAT, 2330",-20.2476674,-70.1383188
02/03/2010,11:30,IQUIQUE,Colisión,Conducción no atento condiciones transito momento,0,0,0,0,2,URBANO,BULNES,JUAN MARTINEZ,,,,"IQUIQUE, BULNES, JUAN MARTINEZ",-20.219616,-70.1454426
02/03/2010,12:15,IQUIQUE,Colisión,Conducción no atento condiciones transito momento,0,0,0,0,2,URBANO,AV. CAMPOS DE DEPORTE,BOMBERO JUAN GIRAO,,,,"IQUIQUE, AV. CAMPOS DE DEPORTE, BOMBERO JUAN GIRAO",-20.2254732,-70.1318466
04/03/2010,15:45,IQUIQUE,Colisión,No respetar derecho preferente de paso a vehículo,0,0,0,1,1,URBANO,BARROS ARANA,SAN MARTIN,,,,"IQUIQUE, BARROS ARANA, SAN MARTIN",-20.2127018,-70.1471204
05/03/2010,08:00,IQUIQUE,Colisión,Conducción sin mantener distancia razonable ni prudente,0,0,0,1,2,URBANO,AV. SANTIAGO POLANCO,AV. PLAYA BRAVA,,,,"IQUIQUE, AV. SANTIAGO POLANCO, AV. PLAYA BRAVA",-20.2478923,-70.1368759
05/03/2010,17:45,IQUIQUE,Colisión,Conducción sin mantener distancia razonable ni prudente,0,0,0,1,1,URBANO,AV. PEDRO PRADO,OHIGGINS,,,,"IQUIQUE, AV. PEDRO PRADO, OHIGGINS",-20.2193218,-70.1347013
06/03/2010,14:15,IQUIQUE,Colisión,Conducción sin mantener distancia razonable ni prudente,0,0,0,0,2,URBANO,AV. PRAT,AV. PLAYA BRAVA,,,,"IQUIQUE, AV. PRAT, AV. PLAYA BRAVA",-20.244478,-70.1410328
06/03/2010,23:05,IQUIQUE,Choque,Conducción no atento condiciones transito momento,0,0,0,0,2,URBANO,AV. PRAT,AV. HEROES DE LA CONCEPCION,,,,"IQUIQUE, AV. PRAT, AV. HEROES DE LA CONCEPCION",-20.2409532,-70.1449725
08/03/2010,08:10,IQUIQUE,Colisión,Conducción sin mantener distancia razonable ni prudente,0,0,0,0,2,URBANO,AV. LA TIRANA,AV. LA TIRANA,,,,"IQUIQUE, AV. LA TIRANA, AV. LA TIRANA",-20.2543166,-70.1260602
08/03/2010,21:00,IQUIQUE,Colisión,"Señalización, desobedecer luz roja de semáforo",0,0,0,4,1,URBANO,OHIGGINS,AV. HEROES DE LA CONCEPCION,,,,"IQUIQUE, OHIGGINS, AV. HEROES DE LA CONCEPCION",-20.2190716,-70.1393305
09/03/2010,09:30,ALTO HOSPICIO,Atropello,No respetar derecho preferente de paso a peatón,0,0,0,1,1,URBANO,LOS ALOMSO CON LOS ALMENDROS,,2790,,,"ALTO HOSPICIO, LOS ALOMSO CON LOS ALMENDROS, 2790",-20.2556598,-70.1069637
09/03/2010,18:05,IQUIQUE,Choque,Conducción sin mantener distancia razonable ni prudente,0,0,0,1,1,URBANO,PEDRO GAMBONI,AV. PEDRO PRADO,,,,"IQUIQUE, PEDRO GAMBONI, AV. PEDRO PRADO",-20.2364664,-70.1360525
10/03/2010,08:35,POZO ALMONTE,Colisión,Causas no determinadas,0,0,1,0,2,RURAL,ESTACION,,5,,,"POZO ALMONTE, ESTACION, 5",-20.2612535,-69.7846354
10/03/2010,20:40,IQUIQUE,Colisión,Perdida control vehículo,0,0,0,1,1,URBANO,ZEGERS,JUAN MARTINESZ,,,,"IQUIQUE, ZEGERS, JUAN MARTINESZ",-20.217696,-70.1452689
10/03/2010,23:27,IQUIQUE,Colisión,Conducción no atento condiciones transito momento,0,0,0,2,0,URBANO,AV. SANTIAGO POLANCO,AV. ARTURO PRAT,,,,"IQUIQUE, AV. SANTIAGO POLANCO, AV. ARTURO PRAT",-20.2486089,-70.1382111
11/03/2010,16:25,IQUIQUE,Atropello,"Peatón, cruza calzada fuera paso peatones",0,1,0,0,1,URBANO,LOS ALGARROBOS,,3238,,,"IQUIQUE, LOS ALGARROBOS, 3238",-20.25001,-70.12631
12/03/2010,19:50,IQUIQUE,Atropello,"Peatón, cruza calzada fuera paso peatones",0,0,0,1,1,URBANO,TUCAPEL,,2446,,,"IQUIQUE, TUCAPEL, 2446",-20.2401532,-70.1339695
13/03/2010,01:00,IQUIQUE,Colisión,"Conducción, cambiar sorpresivamente pista circulación",0,0,0,0,2,URBANO,AV. PEDRO PRADO,BULNES,,,,"IQUIQUE, AV. PEDRO PRADO, BULNES",-20.2201814,-70.1349026
13/03/2010,19:10,ALTO HOSPICIO,Atropello,Causas no determinadas,0,1,0,0,0,URBANO,LORETO PINEDA,,3007,,,"ALTO HOSPICIO, LORETO PINEDA, 3007",-20.2833296,-70.1039885
13/03/2010,21:45,ALTO HOSPICIO,Choque,Perdida control vehículo,0,0,0,1,1,URBANO,JERUSALEM,,3954,,,"ALTO HOSPICIO, JERUSALEM, 3954",-20.2686722,-70.1049169
14/03/2010,13:00,IQUIQUE,Choque,Conducción no atento condiciones transito momento,0,0,0,0,2,URBANO,CARDENAL JOSE CARDENAL CARO,PJE.  VIA LOCAL,,,,"IQUIQUE, CARDENAL JOSE CARDENAL CARO, PJE. VIA LOCAL",-20.2641213,-70.1252803
14/03/2010,14:00,ALTO HOSPICIO,Atropello,Causas no determinadas,0,0,1,0,0,URBANO,AV. LAS AMERICAS CON CANADA,,31,,,"ALTO HOSPICIO, AV. LAS AMERICAS CON CANADA, 31",-20.2686722,-70.1049169
14/03/2010,16:50,ALTO HOSPICIO,Atropello,"Peatón, cruza calzada forma sorpresiva o descuidada",0,0,0,1,1,URBANO,LOS GUINDALES CON LOS KIWIS,,2590,,,"ALTO HOSPICIO, LOS GUINDALES CON LOS KIWIS, 2590",-20.2638074,-70.1077772
14/03/2010,20:30,ALTO HOSPICIO,Colisión,"Conducción, cambiar sorpresivamente pista circulación",0,0,0,6,1,URBANO,SANTA ROSA DE HUARA,,25,,,"ALTO HOSPICIO, SANTA ROSA DE HUARA, 25",-20.2720577,-70.0876548
16/03/2010,10:10,IQUIQUE,Colisión,No respetar derecho preferente de paso a vehículo,0,0,0,2,0,URBANO,BERNARDINO GUERRA,13 ORIENTE,,,,"IQUIQUE, BERNARDINO GUERRA, 13 ORIENTE",-20.2296924,-70.134465
16/03/2010,19:15,ALTO HOSPICIO,Colisión,Conducción no atento condiciones transito momento,0,0,0,1,1,URBANO,CERRO ESMERALDA,,2976,,,"ALTO HOSPICIO, CERRO ESMERALDA, 2976",-20.2721122,-70.1000249
18/03/2010,07:20,ALTO HOSPICIO,Atropello,No respetar derecho preferente de paso a peatón,0,0,0,1,1,URBANO,AV. LOS AROMOS,,2328,,,"ALTO HOSPICIO, AV. LOS AROMOS, 2328",-20.2729531,-70.0931598
18/03/2010,16:47,IQUIQUE,Choque,Conducción sin mantener distancia razonable ni prudente,0,0,0,0,2,URBANO,AV. LA TIRANA,AV. ARTURO PRAT,,,,"IQUIQUE, AV. LA TIRANA, AV. ARTURO PRAT",-20.2543166,-70.1260602
19/03/2010,17:00,IQUIQUE,Colisión,Conducción no atento condiciones transito momento,0,0,0,2,1,URBANO,AV. PRAT,,2120,,,"IQUIQUE, AV. PRAT, 2120",-20.2440011,-70.1407861
20/03/2010,03:30,IQUIQUE,Colisión,No respetar derecho preferente de paso a vehículo,0,0,0,1,1,URBANO,JUAN MARTINEZ,ZEGERS,,,,"IQUIQUE, JUAN MARTINEZ, ZEGERS",-20.2307033,-70.1356692
21/03/2010,03:50,ALTO HOSPICIO,Atropello,Causas no determinadas,0,1,0,0,0,URBANO,RICARDO LAGOS CON OVALLE,,2450,,,"ALTO HOSPICIO, RICARDO LAGOS CON OVALLE, 2450",-20.2788894,-70.082582
21/03/2010,17:55,IQUIQUE,Choque,Conducción sin mantener distancia razonable ni prudente,0,0,0,2,2,URBANO,AV. LA TIRANA,CASTRO RAMOS,,,,"IQUIQUE, AV. LA TIRANA, CASTRO RAMOS",-20.2543166,-70.1260602
22/03/2010,13:10,IQUIQUE,Choque,Conducción no atento condiciones transito momento,0,0,0,0,2,URBANO,ANIBAL PINTO,BULNES,,,,"IQUIQUE, ANIBAL PINTO, BULNES",-20.2167578,-70.1528862
23/03/2010,14:20,IQUIQUE,Colisión,Conducción sin mantener distancia razonable ni prudente,0,0,0,1,2,URBANO,CERRO DRAGON,MAULE,,,,"IQUIQUE, CERRO DRAGON, MAULE",-20.2374931,-70.1298787
24/03/2010,12:07,ALTO HOSPICIO,Atropello,Perdida control vehículo,0,1,0,0,1,URBANO,AV. LAS AMERICAS CON CARMELA CARVAJAL,,3000,,,"ALTO HOSPICIO, AV. LAS AMERICAS CON CARMELA CARVAJAL, 3000",-20.2800542,-70.1007563
24/03/2010,15:15,IQUIQUE,Atropello,Conducción no atento condiciones transito momento,0,0,0,1,1,URBANO,AV. PROGRESO,CESPEDES Y GONZALEZ,,,,"IQUIQUE, AV. PROGRESO, CESPEDES Y GONZALEZ",-20.2251209,-70.1331427
24/03/2010,15:40,ALTO HOSPICIO,Choque,Conducción por izquierda eje calzada,0,1,0,0,1,URBANO,AV. LAS PARCELAS,,20,,,"ALTO HOSPICIO, AV. LAS PARCELAS, 20",-20.2728431,-70.0920644
25/03/2010,13:30,IQUIQUE,Choque,Conducción sin mantener distancia razonable ni prudente,0,0,0,2,2,URBANO,AV. PEDRO PRADO,ORELLA,,,,"IQUIQUE, AV. PEDRO PRADO, ORELLA",-20.2212841,-70.1348904
26/03/2010,07:50,IQUIQUE,Choque,Conducción no atento condiciones transito momento,0,0,0,1,1,URBANO,ZEGERS,AV. HEROES DE LA CONCEPCION,,,,"IQUIQUE, ZEGERS, AV. HEROES DE LA CONCEPCION",-20.2180007,-70.1392298
27/03/2010,09:40,IQUIQUE,Colisión,"Señalización, desobedecer luz roja de semáforo",0,0,0,1,2,URBANO,ZEGERS,VIVAR,,,,"IQUIQUE, ZEGERS, VIVAR",-20.2175284,-70.1487847
28/03/2010,22:35,IQUIQUE,Atropello,No respetar derecho preferente de paso a vehículo,0,0,0,1,0,URBANO,JOSE JOAQUIN PEREZ,AVDA. PEDRO PRADO,,,,"IQUIQUE, JOSE JOAQUIN PEREZ, AVDA. PEDRO PRADO",-20.2229938,-70.135099
29/03/2010,10:30,IQUIQUE,Colisión,No respetar derecho preferente de paso a vehículo,0,0,0,1,2,URBANO,ESMERALDA,ERRAZURIZ,,,,"IQUIQUE, ESMERALDA, ERRAZURIZ",-20.2118422,-70.1432225
30/03/2010,15:18,IQUIQUE,Colisión,"Señalización, desobedecer señal pare",0,0,1,1,0,URBANO,AMUNATEGUI,CESPEDES Y GONZALEZ,,,,"IQUIQUE, AMUNATEGUI, CESPEDES Y GONZALEZ",-20.2244134,-70.14698
01/04/2010,17:20,IQUIQUE,Colisión,"Señalización, desobedecer señal pare",0,0,0,2,0,URBANO,18 DE SEPTIEMBRE,SAN MARTIN,,,,"IQUIQUE, 18 DE SEPTIEMBRE, SAN MARTIN",-20.2307033,-70.1356692
02/04/2010,10:30,IQUIQUE,Atropello,"Señalización, desobedecer luz roja de semáforo",0,0,0,1,1,URBANO,AVDA. ARTURO PRAT,SOTOMAYOR,,,,"IQUIQUE, AVDA. ARTURO PRAT, SOTOMAYOR",-20.2109307,-70.1514957
02/04/2010,11:30,ALTO HOSPICIO,Atropello,"Peatón, cruza calzada forma sorpresiva o descuidada",0,0,0,1,1,URBANO,ANTOFAGASTA CON PASAJE TALCA,,45,,,"ALTO HOSPICIO, ANTOFAGASTA CON PASAJE TALCA, 45",-20.2759861,-70.0810375
02/04/2010,23:20,ALTO HOSPICIO,Atropello,"Peatón, cruza calzada forma sorpresiva o descuidada",0,0,0,1,1,URBANO,LAS AVELLANAS CON LA NORIA,,2890,,,"ALTO HOSPICIO, LAS AVELLANAS CON LA NORIA, 2890",-20.268972,-70.1069944
03/04/2010,22:53,IQUIQUE,Colisión,Conducción contra sentido del transito,0,0,0,1,1,URBANO,AVDA. ARTURO PRAT,AVDA. CHIPANA,,,,"IQUIQUE, AVDA. ARTURO PRAT, AVDA. CHIPANA",-20.2484469,-70.1381101
04/04/2010,06:50,IQUIQUE,Choque,Velocidad no razonable ni prudente,1,0,0,1,0,URBANO,AVDA. ARTURO PRAT,AVDA. AEROPUERTO,,,,"IQUIQUE, AVDA. ARTURO PRAT, AVDA. AEROPUERTO",-20.2307033,-70.1356692
05/04/2010,09:50,IQUIQUE,Atropello,Conducción no atento condiciones transito momento,0,0,0,1,1,URBANO,CHANON,ALEJANDRIA,,,,"IQUIQUE, CHANON, ALEJANDRIA",-20.2055919,-70.1335815
06/04/2010,08:00,IQUIQUE,Colisión,No respetar derecho preferente de paso a vehículo,0,0,0,1,2,URBANO,PLAYA BLANCA,RANCAGUA,,,,"IQUIQUE, PLAYA BLANCA, RANCAGUA",-20.2307033,-70.1356692
07/04/2010,08:30,IQUIQUE,Colisión,Conducción sin mantener distancia razonable ni prudente,0,0,0,2,2,URBANO,AVDA. LA TIRANA,PRESITENTE EDUARDO FREI MONTALVA,,,,"IQUIQUE, AVDA. LA TIRANA, PRESITENTE EDUARDO FREI MONTALVA",-20.2580681,-70.1253626
09/04/2010,12:45,IQUIQUE,Atropello,Conducción no atento condiciones transito momento,0,0,0,1,1,URBANO,JUAN MARTINEZ,,464,,,"IQUIQUE, JUAN MARTINEZ, 464",-20.2134552,-70.1447043
09/04/2010,13:20,ALTO HOSPICIO,Atropello,Causas no determinadas,0,0,1,0,1,URBANO,LOS KIWIS CON LOS TAMARUGOS,,2790,,,"ALTO HOSPICIO, LOS KIWIS CON LOS TAMARUGOS, 2790",-20.2718192,-70.104678
10/04/2010,18:40,IQUIQUE,Colisión,"Conducción, cambiar sorpresivamente pista circulación",0,0,0,2,2,URBANO,SARGENTO ALDEA,10 ORIENTE,,,,"IQUIQUE, SARGENTO ALDEA, 10 ORIENTE",-20.2164258,-70.1358155
12/04/2010,16:40,IQUIQUE,Colisión,"Conducción, cambiar sorpresivamente pista circulación",0,0,0,1,2,URBANO,AVDA. CHIPANA,GUATACONDO,,,,"IQUIQUE, AVDA. CHIPANA, GUATACONDO",-20.2307033,-70.1356692
15/04/2010,08:30,IQUIQUE,Colisión,"Señalización, desobedecer señal pare",0,0,0,1,2,URBANO,21 DE MAYO,HERNAN FUENZALIDAD,,,,"IQUIQUE, 21 DE MAYO, HERNAN FUENZALIDAD",-20.2286595,-70.1427026
19/04/2010,13:45,IQUIQUE,Colisión,Conducción sin mantener distancia razonable ni prudente,0,0,0,1,0,URBANO,OHIGGINS,ELEUTERIO RAMIREZ,,,,"IQUIQUE, OHIGGINS, ELEUTERIO RAMIREZ",-20.2184918,-70.1494876
20/04/2010,09:45,IQUIQUE,Atropello,Conducción no atento condiciones transito momento,0,0,0,1,0,URBANO,VIVAR,,1214,,,"IQUIQUE, VIVAR, 1214",-20.21975,-70.1487933
20/04/2010,20:15,IQUIQUE,Colisión,Conducción sin mantener distancia razonable ni prudente,0,0,0,1,1,URBANO,TARAPACA,OSCAR BONILLA,,,,"IQUIQUE, TARAPACA, OSCAR BONILLA",-20.2194645,-70.1403842
21/04/2010,14:20,POZO ALMONTE,Atropello,"Peatón, imprudencia del",0,0,0,1,1,URBANO,estacion con pampa germania,,0,,,"POZO ALMONTE, estacion con pampa germania, 0",-20.2613588,-69.7846368
22/04/2010,09:30,IQUIQUE,Atropello,Conducción no atento condiciones transito momento,0,0,0,1,0,URBANO,SERRANO,PATRICIO LYNCH,,,,"IQUIQUE, SERRANO, PATRICIO LYNCH",-20.2130592,-70.1513845
22/04/2010,09:40,IQUIQUE,Colisión,Conducción no atento condiciones transito momento,0,0,0,1,1,URBANO,OHIGGINS,AV. PEDRO PRADO,,,,"IQUIQUE, OHIGGINS, AV. PEDRO PRADO",-20.2193218,-70.1347013
22/04/2010,12:35,IQUIQUE,Colisión,Conducción no atento condiciones transito momento,0,1,0,0,1,URBANO,AV. CERRO DRAGON,,3155,,,"IQUIQUE, AV. CERRO DRAGON, 3155",-20.247171,-70.1295565
23/04/2010,15:30,IQUIQUE,Atropello,Conducción no atento condiciones transito momento,0,1,0,0,1,URBANO,ZEGERS,AMUNATEGUI,,,,"IQUIQUE, ZEGERS, AMUNATEGUI",-20.2176315,-70.1465983
25/04/2010,00:40,IQUIQUE,Colisión,Conducción sin mantener distancia razonable ni prudente,0,0,0,1,2,URBANO,RUTA A-1,,400,,,"IQUIQUE, RUTA A-1, 400",-20.2414367,-70.1342598
25/04/2010,02:25,IQUIQUE,Colisión,Otras causas,1,0,0,0,0,URBANO,2 ORIENTE,4 SUR,,,,"IQUIQUE, 2 ORIENTE, 4 SUR",-20.2742676,-70.1241236
25/04/2010,15:00,IQUIQUE,Colisión,"Señalización, desobedecer señal pare",0,0,0,0,1,URBANO,AV. CERRO DRAGON,GOMEZ CARREÑO,,,,"IQUIQUE, AV. CERRO DRAGON, GOMEZ CARREÑO",-20.2330057,-70.1302175
28/04/2010,18:00,ALTO HOSPICIO,Colisión,Virajes indebidos,0,0,0,2,0,URBANO,NACIONES UNIDAS CON SAN FERNANDO,,87,,,"ALTO HOSPICIO, NACIONES UNIDAS CON SAN FERNANDO, 87",-20.2686722,-70.1049169
29/04/2010,04:20,IQUIQUE,Caída,Conducción no atento condiciones transito momento,0,1,0,0,1,URBANO,AVDA. SALVADOR ALLENDE,AV. JOSE MIGUEL CARRERA,,,,"IQUIQUE, AVDA. SALVADOR ALLENDE, AV. JOSE MIGUEL CARRERA",-20.2307033,-70.1356692
29/04/2010,16:30,IQUIQUE,Colisión,"Señalización, desobedecer señal pare",0,0,0,1,1,URBANO,THOMPSON,21 DE MAYO,,,,"IQUIQUE, THOMPSON, 21 DE MAYO",-20.2153669,-70.1418343
01/05/2010,20:10,IQUIQUE,Colisión,Conducción sin mantener distancia razonable ni prudente,0,0,0,0,1,URBANO,JUAN MARTINEZ,LATORRE,,,,"IQUIQUE, JUAN MARTINEZ, LATORRE",-20.2169534,-70.1451921
02/05/2010,12:45,IQUIQUE,Colisión,Conducción no atento condiciones transito momento,0,0,0,0,2,URBANO,AV.PEDRO PRADO,AVDA. P.PRADO,,,,"IQUIQUE, AV.PEDRO PRADO, AVDA. P.PRADO",-20.2653648,-70.1252091
02/05/2010,14:50,IQUIQUE,Colisión,"Señalización, desobedecer señal pare",0,0,0,1,3,URBANO,RAMIREZ,MANUEL  RODRIGUEZ,,,,"IQUIQUE, RAMIREZ, MANUEL RODRIGUEZ",-20.2233541,-70.1497193
03/05/2010,16:40,IQUIQUE,Colisión,Conducción no atento condiciones transito momento,0,0,0,0,2,URBANO,PATRICIO LYNCH,JOSE JOAQUIN PEREZ,,,,"IQUIQUE, PATRICIO LYNCH, JOSE JOAQUIN PEREZ",-20.2223397,-70.1515796
04/05/2010,19:40,IQUIQUE,Colisión,Conducción sin mantener distancia razonable ni prudente,0,0,0,1,2,URBANO,ANIBAL PINTO,OHIGGINS,,,,"IQUIQUE, ANIBAL PINTO, OHIGGINS",-20.2182824,-70.1529419
05/05/2010,02:10,IQUIQUE,Colisión,"Señalización, desobedecer señal ceda el paso",0,1,1,0,0,URBANO,CAMPOS ORIENTE,AVDA. P. PRADO,,,,"IQUIQUE, CAMPOS ORIENTE, AVDA. P. PRADO",-20.2307033,-70.1356692
06/05/2010,12:00,IQUIQUE,Colisión,"Señalización, desobedecer señal ceda el paso",0,0,0,2,2,URBANO,OBISPO LABBE,RIQUELME,,,,"IQUIQUE, OBISPO LABBE, RIQUELME",-20.2213589,-70.1504909
08/05/2010,04:25,ALTO HOSPICIO,Choque,Perdida control vehículo,0,0,1,1,0,URBANO,AV. LAS AMERICAS CON FINLANDIA,,40,,,"ALTO HOSPICIO, AV. LAS AMERICAS CON FINLANDIA, 40",-20.2686722,-70.1049169
08/05/2010,14:20,IQUIQUE,Atropello,"Señalización, desobedecer luz roja de semáforo",1,0,0,0,1,URBANO,TARAPACA,ELEUTERIO RAMIREZ,,,,"IQUIQUE, TARAPACA, ELEUTERIO RAMIREZ",-20.2184918,-70.1494876
09/05/2010,10:30,IQUIQUE,Colisión,Conducción no atento condiciones transito momento,0,0,0,0,2,URBANO,21 DE MAYO,,1203,,,"IQUIQUE, 21 DE MAYO, 1203",-20.2414367,-70.1342598
09/05/2010,19:45,IQUIQUE,Choque,"Señalización, desobedecer señal pare",0,0,0,0,2,URBANO,AVDA. HERLA CONCEPCIONOES DE,,,,,"IQUIQUE, AVDA. HERLA CONCEPCIONOES DE",-20.2307033,-70.1356692
10/05/2010,19:00,IQUIQUE,Colisión,"Señalización, desobedecer señal pare",0,0,0,1,2,URBANO,LAS ROSAS,GENARO GALLO,,,,"IQUIQUE, LAS ROSAS, GENARO GALLO",-20.2373067,-70.139562
11/05/2010,08:40,IQUIQUE,Choque,Conducción sin mantener distancia razonable ni prudente,0,0,0,1,1,URBANO,AVDA. LA TIRANA,TADEO HEANKE,,,,"IQUIQUE, AVDA. LA TIRANA, TADEO HEANKE",-20.2382135,-70.1286667
11/05/2010,11:00,IQUIQUE,Atropello,Peatón permanece sobre la calzada,0,0,0,1,1,URBANO,JUAN MARTINEZ,SERRANO,,,,"IQUIQUE, JUAN MARTINEZ, SERRANO",-20.2193478,-70.1454167
11/05/2010,17:45,IQUIQUE,Colisión,"Señalización, desobedecer señal ceda el paso",0,0,0,1,1,URBANO,OBISPO LABBE,RIQUELME,,,,"IQUIQUE, OBISPO LABBE, RIQUELME",-20.2213589,-70.1504909
12/05/2010,08:20,IQUIQUE,Colisión,Conducción sin mantener distancia razonable ni prudente,0,0,0,0,2,URBANO,AVDA. LA TIRANA,RUTA A-16,,,,"IQUIQUE, AVDA. LA TIRANA, RUTA A-16",-20.2543166,-70.1260602
13/05/2010,08:45,IQUIQUE,Caída,Pasajero sube o desciende de vehículo movimiento,0,0,0,1,1,URBANO,AVDA. CIRCUNVALACION,MAPACHO,,,,"IQUIQUE, AVDA. CIRCUNVALACION, MAPACHO",-20.2063726,-70.1306179
13/05/2010,12:30,IQUIQUE,Atropello,No respetar derecho preferente de paso a peatón,0,0,0,1,1,URBANO,12 DE FEBRERO,SERRANO,,,,"IQUIQUE, 12 DE FEBRERO, SERRANO",-20.2307033,-70.1356692
14/05/2010,05:40,IQUIQUE,Colisión,"Señalización, desobedecer señal ceda el paso",0,0,0,0,2,URBANO,MANUEL CASTRO RAMOS,AVDA. LA TIRANA,,,,"IQUIQUE, MANUEL CASTRO RAMOS, AVDA. LA TIRANA",-20.2444412,-70.1282904
14/05/2010,12:05,ALTO HOSPICIO,Atropello,Perdida control vehículo,0,0,0,1,1,URBANO,AV. LAS AMERICAS,,3458,,,"ALTO HOSPICIO, AV. LAS AMERICAS, 3458",-20.2844778,-70.1018567
14/05/2010,13:30,ALTO HOSPICIO,Colisión,Causas no determinadas,0,0,0,2,0,URBANO,AV. LAS AMERICAS,,,Ruta 16,38.5,"ALTO HOSPICIO, AV. LAS AMERICAS",-20.2901059,-70.1042119
15/05/2010,16:00,IQUIQUE,Colisión,"Señalización, desobedecer señal ceda el paso",0,0,0,1,2,URBANO,RANCAGUA,MAULE,,,,"IQUIQUE, RANCAGUA, MAULE",-20.2379358,-70.1322064
16/05/2010,22:20,IQUIQUE,Choque,"Vehiculo en retroceso, conducir",0,0,0,0,1,URBANO,Arturo Fernández,,1373,,,"IQUIQUE, Arturo Fernández, 1373",-20.2214059,-70.1445723
17/05/2010,08:30,IQUIQUE,Colisión,"Señalización, desobedecer señal pare",0,0,0,1,1,URBANO,PATRICIO LYNCH,SOTOMAYOR,,,,"IQUIQUE, PATRICIO LYNCH, SOTOMAYOR",-20.2154369,-70.1513951
18/05/2010,03:50,ALTO HOSPICIO,Atropello,"Peatón, imprudencia del",0,1,0,0,1,RURAL,VERTEDERO MUNICIPAL,,1,,,"ALTO HOSPICIO, VERTEDERO MUNICIPAL, 1",-20.2686722,-70.1049169
20/05/2010,17:30,IQUIQUE,Colisión,Conducción no atento condiciones transito momento,0,0,0,1,1,URBANO,18 DE SEPTIEMBRE,SARGENTO ALDEA,,,,"IQUIQUE, 18 DE SEPTIEMBRE, SARGENTO ALDEA",-20.2161654,-70.142953
21/05/2010,15:40,IQUIQUE,Atropello,"Peatón, cruza calzada forma sorpresiva o descuidada",0,0,0,1,1,URBANO,AMUNATEGUI,SARGENTO ALDEA,,,,"IQUIQUE, AMUNATEGUI, SARGENTO ALDEA",-20.2160359,-70.1465023
22/05/2010,19:40,IQUIQUE,Colisión,Conducción sin mantener distancia razonable ni prudente,0,0,0,1,1,URBANO,18 DE SEPTIEMBRE,SAN MARTIN,,,,"IQUIQUE, 18 DE SEPTIEMBRE, SAN MARTIN",-20.2307033,-70.1356692
23/05/2010,22:15,IQUIQUE,Colisión,Conducción no atento condiciones transito momento,0,0,0,0,2,URBANO,BARROS ARANA,OSCAR TOMAS BONILLA,,,,"IQUIQUE, BARROS ARANA, OSCAR TOMAS BONILLA",-20.2276758,-70.1407143
24/05/2010,18:00,IQUIQUE,Atropello,"Peatón, ebriedad del",0,0,0,1,1,URBANO,AVDA. PEDRO PRADO,JOSE MIGUEL CARRERA,,,,"IQUIQUE, AVDA. PEDRO PRADO, JOSE MIGUEL CARRERA",-20.2269962,-70.1354064
25/05/2010,18:45,IQUIQUE,Choque,Conducción sin mantener distancia razonable ni prudente,0,0,0,1,2,URBANO,vivar,,458,,,"IQUIQUE, vivar, 458",-20.2131898,-70.1484076
26/05/2010,11:25,IQUIQUE,Choque,Conducción no atento condiciones transito momento,0,0,0,0,4,URBANO,PORVENIR,AV. CIRCUNVALACIÓN,,,,"IQUIQUE, PORVENIR, AV. CIRCUNVALACIÓN",-20.2063726,-70.1306179
27/05/2010,16:15,IQUIQUE,Colisión,Conducción no atento condiciones transito momento,0,0,0,0,2,URBANO,CAMPO DE DEPORTE,MARGARITA NARANJO,,,,"IQUIQUE, CAMPO DE DEPORTE, MARGARITA NARANJO",-20.225863,-70.1315828
28/05/2010,15:30,IQUIQUE,Colisión,"Señalización, desobedecer señal pare",0,0,0,1,2,URBANO,SOTOMAYOR,PATRICIO LYNCH,,,,"IQUIQUE, SOTOMAYOR, PATRICIO LYNCH",-20.2109436,-70.151012
30/05/2010,12:40,IQUIQUE,Colisión,"Señalización, desobedecer señal pare",0,0,0,1,2,URBANO,CASTRO RAMOS,AVDA. CERRO DRAGÓN,,,,"IQUIQUE, CASTRO RAMOS, AVDA. CERRO DRAGÓN",-20.2443662,-70.129305
30/05/2010,13:55,ALTO HOSPICIO,Atropello,"Peatón, cruza calzada forma sorpresiva o descuidada",0,0,0,1,1,URBANO,AV. CIRCUNVALACION,,3479,,,"ALTO HOSPICIO, AV. CIRCUNVALACION, 3479",-20.2793907,-70.1066175
31/05/2010,07:40,IQUIQUE,Choque,Conducción no atento condiciones transito momento,0,0,0,0,2,URBANO,AVDA. PADRE HURTADO,AV. ARTURO PRAT,,,,"IQUIQUE, AVDA. PADRE HURTADO, AV. ARTURO PRAT",-20.2625059,-70.130789
01/06/2010,17:50,ALTO HOSPICIO,Volcadura,"Fallas mecánicas, neumáticos",0,1,0,0,0,URBANO,CIRCUNVALACION CON SAN DONATO,,2990,,,"ALTO HOSPICIO, CIRCUNVALACION CON SAN DONATO, 2990",-20.2796397,-70.1056167
01/06/2010,23:00,IQUIQUE,Choque,Conducción no atento condiciones transito momento,0,0,0,1,1,URBANO,CESPEDES GONZALEZ,JUAN MARTINEZ,,,,"IQUIQUE, CESPEDES GONZALEZ, JUAN MARTINEZ",-20.2244564,-70.145933
02/06/2010,21:40,IQUIQUE,Choque,Conducción no atento condiciones transito momento,0,0,0,0,1,URBANO,"ESTACIONAMIENTO SUPER, LIDER IQUIQUE",AVDA. HEROES DE LA CONCEPCION,,,,"IQUIQUE, ESTACIONAMIENTO SUPER, LIDER IQUIQUE, AVDA. HEROES DE LA CONCEPCION",-20.235014,-70.1435904
03/06/2010,09:45,IQUIQUE,Choque,Conducción no atento condiciones transito momento,0,0,0,1,1,URBANO,AVDA. ARTURO PRAT,VIVAR,,,,"IQUIQUE, AVDA. ARTURO PRAT, VIVAR",-20.2255093,-70.1494647
04/06/2010,08:30,IQUIQUE,Atropello,No respetar derecho preferente de paso a peatón,0,0,0,1,1,URBANO,VIVAR,ESMERALDA,,,,"IQUIQUE, VIVAR, ESMERALDA",-20.2115901,-70.1484112
05/06/2010,12:50,IQUIQUE,Atropello,No respetar derecho preferente de paso a peatón,0,0,0,1,1,URBANO,AMUNATEGUI,LATORRE,,,,"IQUIQUE, AMUNATEGUI, LATORRE",-20.2168169,-70.1465983
07/06/2010,18:45,IQUIQUE,Atropello,Conducción no atento condiciones transito momento,0,0,0,1,1,URBANO,AV LA TIRANA,CALLE TRES,,,,"IQUIQUE, AV LA TIRANA, CALLE TRES",-20.2561589,-70.1256228
09/06/2010,06:45,IQUIQUE,Atropello,Conducción no atento condiciones transito momento,0,0,0,1,1,URBANO,JUAN MARTINEZ,JOSE JOAQUIN PEREZ,,,,"IQUIQUE, JUAN MARTINEZ, JOSE JOAQUIN PEREZ",-20.2225558,-70.1457281
09/06/2010,19:00,IQUIQUE,Atropello,"Peatón, cruza calzada forma sorpresiva o descuidada",0,0,0,1,1,URBANO,TARAPACA,BARROS ARANA,,,,"IQUIQUE, TARAPACA, BARROS ARANA",-20.2175833,-70.1474318
10/06/2010,12:40,IQUIQUE,Atropello,No respetar derecho preferente de paso a peatón,0,0,0,1,1,URBANO,SGTO. ALSEA,AMUNATEGUI,,,,"IQUIQUE, SGTO. ALSEA, AMUNATEGUI",-20.2176315,-70.1465983
11/06/2010,10:00,IQUIQUE,Colisión,Conducción sin mantener distancia razonable ni prudente,0,0,0,1,1,URBANO,AVDA. ARTURO PRAT,GOROSTIAGA,,,,"IQUIQUE, AVDA. ARTURO PRAT, GOROSTIAGA",-20.2141572,-70.1548644
12/06/2010,21:30,IQUIQUE,Atropello,No respetar derecho preferente de paso a peatón,0,0,0,1,1,URBANO,RAMIREZ,LATORRE,,,,"IQUIQUE, RAMIREZ, LATORRE",-20.2160808,-70.1493656
14/06/2010,16:15,IQUIQUE,Colisión,Conducción no atento condiciones transito momento,0,0,0,0,0,URBANO,AVDA. CIRCUNVALACION,ROTONDA EL PAMPINO,,,,"IQUIQUE, AVDA. CIRCUNVALACION, Rotonda EL PAMPINO",-20.22088,-70.132018
15/06/2010,11:05,IQUIQUE,Colisión,"Señalización, desobedecer señal ceda el paso",0,0,0,2,1,URBANO,AVDA. SALVADOR ALLENDE,AVDA. CERRO DRAGON,,,,"IQUIQUE, AVDA. SALVADOR ALLENDE, AVDA. CERRO DRAGON",-20.2564933,-70.1277582
16/06/2010,17:15,IQUIQUE,Atropello,No respetar derecho preferente de paso a peatón,0,0,0,1,1,URBANO,HERNAN FUENZALIDA,AVDA. SALVADOR ALLENDE,,,,"IQUIQUE, HERNAN FUENZALIDA, AVDA. SALVADOR ALLENDE",-20.2290311,-70.135502
18/06/2010,08:15,IQUIQUE,Colisión,Conducción no atento condiciones transito momento,0,0,0,1,1,URBANO,OBISPO LABBE,SIMON BOLIVAR,,,,"IQUIQUE, OBISPO LABBE, SIMON BOLIVAR",-20.2122091,-70.1502238
19/06/2010,02:20,IQUIQUE,Colisión,"Señalización, desobedecer señal pare",0,0,0,1,1,RURAL,MANUEL CASTRO RAMOS,CERRO DRAGON,,,,"IQUIQUE, MANUEL CASTRO RAMOS, CERRO DRAGON",-20.2443662,-70.129305
20/06/2010,15:00,IQUIQUE,Colisión,"Señalización, desobedecer señal pare",0,0,0,3,1,URBANO,TOMAS BONILLA,COLO-COLO,,,,"IQUIQUE, TOMAS BONILLA, COLO-COLO",-20.2278346,-70.136846
21/06/2010,12:20,POZO ALMONTE,Atropello,"Peatón, imprudencia del",0,0,0,1,1,RURAL,comercio con estacion,,0,,,"POZO ALMONTE, comercio con estacion, 0",-20.2570503,-69.7857064
21/06/2010,16:00,IQUIQUE,Colisión,"Señalización, desobedecer señal ceda el paso",0,0,0,1,1,URBANO,GENARO GALLO,MANUEL BULNES,,,,"IQUIQUE, GENARO GALLO, MANUEL BULNES",-20.2201278,-70.1361812
22/06/2010,04:20,IQUIQUE,Volcadura,Velocidad no razonable ni prudente,0,0,0,1,0,URBANO,AVDA. PRAT,PLAYA BRAVA,,,,"IQUIQUE, AVDA. PRAT, PLAYA BRAVA",-20.2464111,-70.1403293
23/06/2010,09:30,IQUIQUE,Atropello,"Peatón, cruza calzada fuera paso peatones",0,0,0,1,1,URBANO,PASAJE NRO. 05,INTERIOR TERMINAL AGOPECUARIO,,,,"IQUIQUE, PASAJE NRO. 05, INTERIOR TERMINAL AGOPECUARIO",-20.2307033,-70.1356692
24/06/2010,03:55,ALTO HOSPICIO,Volcadura,Perdida control vehículo,0,1,0,0,0,URBANO,AV. PAMPA PERDIZ ESQUINA LOS NOGALES,,2590,,,"ALTO HOSPICIO, AV. PAMPA PERDIZ ESQUINA LOS NOGALES, 2590",-20.2708507,-70.0986937
24/06/2010,14:00,IQUIQUE,Atropello,"Peatón, cruza calzada forma sorpresiva o descuidada",0,1,0,0,1,URBANO,PEDRO PRADO,MANUEL RODRIGUEZ,,,,"IQUIQUE, PEDRO PRADO, MANUEL RODRIGUEZ",-20.2239461,-70.1351704
25/06/2010,17:05,POZO ALMONTE,Colisión,Conducción no atento condiciones transito momento,0,0,0,0,2,URBANO,21 DE MAYO CON PAMPA GERMANIA,,0,,,"POZO ALMONTE, 21 DE MAYO CON PAMPA GERMANIA, 0",-20.2613588,-69.7846368
25/06/2010,23:20,IQUIQUE,Choque,Conducción no atento condiciones transito momento,0,0,0,1,0,URBANO,AVDA.  ARTURO PRAT,SALITERA  VICTORIA,,,,"IQUIQUE, AVDA. ARTURO PRAT, SALITERA VICTORIA",-20.2048548,-70.1419282
26/06/2010,15:30,IQUIQUE,Colisión,"Señalización, desobedecer luz roja de semáforo",0,0,0,2,1,URBANO,VIVAR,OHIGGINS,,,,"IQUIQUE, VIVAR, OHIGGINS",-20.218536,-70.1488892
27/06/2010,16:50,IQUIQUE,Colisión,"Señalización, desobedecer señal ceda el paso",0,0,0,4,0,URBANO,ORELLA,ARTURO FERNANDEZ,,,,"IQUIQUE, ORELLA, ARTURO FERNANDEZ",-20.2207652,-70.1443587
29/06/2010,14:10,IQUIQUE,Colisión,"Señalización, desobedecer señal ceda el paso",0,0,0,1,1,URBANO,ESTACIONAMIENTOS,MALL ZOFRI,,,,"IQUIQUE, ESTACIONAMIENTOS, MALL ZOFRI",-20.2319612,-70.1421087
30/06/2010,16:30,IQUIQUE,Colisión,"Señalización, desobedecer señal ceda el paso",0,2,0,0,1,URBANO,LATORRE,21 DE MAYO,,,,"IQUIQUE, LATORRE, 21 DE MAYO",-20.2170705,-70.1435776
01/07/2010,08:00,IQUIQUE,Atropello,No respetar derecho preferente de paso a peatón,0,0,0,1,1,URBANO,AVDA. PLAYA BRAVA,SANTIAGO POLANCO,,,,"IQUIQUE, AVDA. PLAYA BRAVA, SANTIAGO POLANCO",-20.2478923,-70.1368759
01/07/2010,14:40,IQUIQUE,Colisión,"Señalización, desobedecer señal ceda el paso",0,1,0,0,1,URBANO,AVDA. PEDRO PRADO,ELIAS LAFFERTE,,,,"IQUIQUE, AVDA. PEDRO PRADO, ELIAS LAFFERTE",-20.2225972,-70.1350708
02/07/2010,07:35,IQUIQUE,Colisión,"Señalización, desobedecer señal pare",0,0,0,1,2,URBANO,AVDA. PEDRO PRADO,AVDA. CHIPANA,,,,"IQUIQUE, AVDA. PEDRO PRADO, AVDA. CHIPANA",-20.2396655,-70.1345536
02/07/2010,13:35,IQUIQUE,Atropello,Conducción no atento condiciones transito momento,0,1,0,0,1,URBANO,COLON,INTERIOR RECINTOS AMURALLADOS,,,,"IQUIQUE, COLON, INTERIOR RECINTOS AMURALLADOS",-20.2307033,-70.1356692
02/07/2010,20:40,IQUIQUE,Colisión,"Señalización, desobedecer señal ceda el paso",0,0,0,1,2,URBANO,AVDA. LA TIRANA,CASTRO RAMOS,,,,"IQUIQUE, AVDA. LA TIRANA, CASTRO RAMOS",-20.2444412,-70.1282904
02/07/2010,21:00,ALTO HOSPICIO,Colisión,Conducción bajo la influencia del alcohol,0,0,0,1,2,URBANO,AV. LOS ALAMOS CON TILIVICHI,,2790,,,"ALTO HOSPICIO, AV. LOS ALAMOS CON TILIVICHI, 2790",-20.269035,-70.1092389
03/07/2010,18:45,IQUIQUE,Atropello,"Peatón, cruza calzada forma sorpresiva o descuidada",0,0,0,1,1,URBANO,AVDA. P. PRADO,MANUEL CASTRO RAMOS,,,,"IQUIQUE, AVDA. P. PRADO, MANUEL CASTRO RAMOS",-20.244863,-70.1334046
03/07/2010,22:00,IQUIQUE,Colisión,"Señalización, desobedecer luz roja de semáforo",0,1,0,0,1,URBANO,JUAN MARTINEZ,LATORRE,,,,"IQUIQUE, JUAN MARTINEZ, LATORRE",-20.2169534,-70.1451921
04/07/2010,19:20,ALTO HOSPICIO,Choque,Perdida control vehículo,0,0,0,2,1,URBANO,AV. LOS ARMOS CON SANTA MARTA,,3690,,,"ALTO HOSPICIO, AV. LOS ARMOS CON SANTA MARTA, 3690",-20.2686722,-70.1049169
06/07/2010,08:40,IQUIQUE,Atropello,No respetar derecho preferente de paso a peatón,0,0,0,1,1,URBANO,FRANCISCO VERGARA,ANKIEL NIELSEN,,,,"IQUIQUE, FRANCISCO VERGARA, ANKIEL NIELSEN",-20.2487975,-70.1346724
06/07/2010,09:00,IQUIQUE,Colisión,Conducción no atento condiciones transito momento,0,0,0,1,1,URBANO,AMUNATEGUI,RIQUELME,,,,"IQUIQUE, AMUNATEGUI, RIQUELME",-20.2216013,-70.146812
07/07/2010,08:10,ALTO HOSPICIO,Colisión,Conducción no atento condiciones transito momento,0,0,0,2,1,URBANO,AV. LOS AROMOS X LOS DALITES,,2190,,,"ALTO HOSPICIO, AV. LOS AROMOS X LOS DALITES, 2190",-20.2621685,-70.1042093
07/07/2010,18:00,IQUIQUE,Colisión,Conducción sin mantener distancia razonable ni prudente,0,1,0,0,1,URBANO,PRESIDENTE ERRAZURIZ,,1366,,,"IQUIQUE, PRESIDENTE ERRAZURIZ, 1366",-20.2212795,-70.1438041
08/07/2010,09:45,IQUIQUE,Atropello,No respetar derecho preferente de paso a peatón,0,1,0,0,1,URBANO,AVDA. LA TIRANA,CALLE CUATRO,,,,"IQUIQUE, AVDA. LA TIRANA, CALLE CUATRO",-20.2543166,-70.1260602
10/07/2010,08:00,IQUIQUE,Colisión,"Señalización, desobedecer señal ceda el paso",0,1,0,0,1,URBANO,18  DE SEPTIEMBRE,LIBERTAD,,,,"IQUIQUE, 18 DE SEPTIEMBRE, LIBERTAD",-20.2307033,-70.1356692
10/07/2010,10:00,IQUIQUE,Atropello,Conducción bajo la influencia del alcohol,0,0,0,2,1,URBANO,AVDA. PRAT,AVDA. AEROPUERTO,,,,"IQUIQUE, AVDA. PRAT, AVDA. AEROPUERTO",-20.2307033,-70.1356692
10/07/2010,17:50,IQUIQUE,Colisión,"Señalización, desobedecer luz roja de semáforo",0,1,1,0,1,URBANO,AVDA. HEROES DE LA CONCEPCION,DIEGO PORTALES,,,,"IQUIQUE, AVDA. HEROES DE LA CONCEPCION, DIEGO PORTALES",-20.2301432,-70.1411798
11/07/2010,01:25,IQUIQUE,Choque,Conducción en estado de ebriedad,0,4,0,2,0,URBANO,DIAGONAL FRANCISCO BILBAO,,4150,,,"IQUIQUE, DIAGONAL FRANCISCO BILBAO, 4150",-20.267364,-70.1254558
11/07/2010,08:15,IQUIQUE,Colisión,"Señalización, desobedecer luz roja de semáforo",0,0,0,1,1,URBANO,ZEGERS,BARROSARANA,,,,"IQUIQUE, ZEGERS, BARROSARANA",-20.2175833,-70.1474318
11/07/2010,16:40,IQUIQUE,Choque,Conducción en estado de ebriedad,0,0,0,0,1,URBANO,LOS MOREÑOS,,2630,,,"IQUIQUE, LOS MOREÑOS, 2630",-20.2348134,-70.1313362
12/07/2010,07:45,IQUIQUE,Colisión,"Señalización, desobedecer luz roja de semáforo",0,0,0,5,1,URBANO,ESMERALDA,AMUNATEGUI,,,,"IQUIQUE, ESMERALDA, AMUNATEGUI",-20.2176315,-70.1465983
12/07/2010,12:55,ALTO HOSPICIO,Volcadura,Velocidad no razonable ni prudente,0,1,0,2,1,URBANO,CALLE 9 CON PASAJE 31,,31,,,"ALTO HOSPICIO, CALLE 9 CON PASAJE 31, 31",-20.2686722,-70.1049169
13/07/2010,11:40,IQUIQUE,Atropello,Conducción no atento condiciones transito momento,0,0,1,0,1,URBANO,HAMBURGO,HONG-KONG,,,,"IQUIQUE, HAMBURGO, HONG-KONG",-20.207074,-70.1312176
15/07/2010,14:50,ALTO HOSPICIO,Atropello,Peatón permanece sobre la calzada,0,0,0,1,1,URBANO,RAMON PEREZ OPAZO,,2755,,,"ALTO HOSPICIO, RAMON PEREZ OPAZO, 2755",-20.2740456,-70.1008643
17/07/2010,06:40,IQUIQUE,Choque,Conducción sin mantener distancia razonable ni prudente,0,0,0,1,1,URBANO,PLAYA BRAVA,PEDRO GONZALEZ,,,,"IQUIQUE, PLAYA BRAVA, PEDRO GONZALEZ",-20.2427402,-70.1399698
17/07/2010,18:45,ALTO HOSPICIO,Atropello,Causas no determinadas,0,0,0,1,1,URBANO,LOS AROMOS,,3970,,,"ALTO HOSPICIO, LOS AROMOS, 3970",-20.2559988,-70.1060403
17/07/2010,20:15,ALTO HOSPICIO,Colisión,Causas no determinadas,0,0,0,1,0,URBANO,MANZANA 31,,31,,,"ALTO HOSPICIO, MANZANA 31, 31",-20.2686722,-70.1049169
19/07/2010,08:10,IQUIQUE,Colisión,"Señalización, desobedecer luz roja de semáforo",0,0,0,0,2,URBANO,AVDA. PEDRO PRADO,SANTIAGO POLANCO,,,,"IQUIQUE, AVDA. PEDRO PRADO, SANTIAGO POLANCO",-20.2468369,-70.1329274
20/07/2010,08:55,IQUIQUE,Colisión,"Señalización, desobedecer señal ceda el paso",0,1,0,3,1,URBANO,ARTURO FERNANDEZ,SGTO. ALDEA,,,,"IQUIQUE, ARTURO FERNANDEZ, SGTO. ALDEA",-20.2161264,-70.1441618
20/07/2010,15:10,IQUIQUE,Colisión,"Señalización, desobedecer señal pare",0,1,0,1,1,URBANO,MANUEL BULNES,ARTURO FERNANDEZ,,,,"IQUIQUE, MANUEL BULNES, ARTURO FERNANDEZ",-20.2196748,-70.1443406
22/07/2010,00:00,ALTO HOSPICIO,Atropello,Causas no determinadas,0,1,0,0,0,URBANO,RICARDO LAGOS CON LOS AROMOS,,3990,,,"ALTO HOSPICIO, RICARDO LAGOS CON LOS AROMOS, 3990",-20.2686722,-70.1049169
22/07/2010,20:15,IQUIQUE,Colisión,"Señalización, desobedecer señal ceda el paso",0,1,0,0,1,URBANO,AVDA. H. DE LA CONCEPCION,TOMAS BONILLA,,,,"IQUIQUE, AVDA. H. DE LA CONCEPCION, TOMAS BONILLA",-20.2307033,-70.1356692
23/07/2010,03:20,IQUIQUE,Colisión,"Señalización, desobedecer luz roja de semáforo",0,0,0,1,1,URBANO,AVDA. PEDRO PRADO,SANTIAGO POLANCO,,,,"IQUIQUE, AVDA. PEDRO PRADO, SANTIAGO POLANCO",-20.2468369,-70.1329274
23/07/2010,08:20,IQUIQUE,Colisión,"Señalización, desobedecer señal pare",0,0,0,1,1,URBANO,ORELLA,AMUNATEGUI,,,,"IQUIQUE, ORELLA, AMUNATEGUI",-20.2206303,-70.146763
23/07/2010,12:50,IQUIQUE,Colisión,"Señalización, desobedecer señal ceda el paso",0,0,0,2,0,URBANO,LATORRE,18 DE SEPTIEMBRE,,,,"IQUIQUE, LATORRE, 18 DE SEPTIEMBRE",-20.2171182,-70.1429854
24/07/2010,05:30,ALTO HOSPICIO,Colisión,Conducción no atento condiciones transito momento,0,0,0,1,0,URBANO,AV. LAS AMERICAS CON CALLE ITALIA,,3590,,,"ALTO HOSPICIO, AV. LAS AMERICAS CON CALLE ITALIA, 3590",-20.2845161,-70.1018709
24/07/2010,19:20,IQUIQUE,Atropello,"Peatón, cruza calzada forma sorpresiva o descuidada",0,0,0,1,1,URBANO,HECTOR DAVILA,,2807,,,"IQUIQUE, HECTOR DAVILA, 2807",-20.2351957,-70.135679
26/07/2010,10:50,IQUIQUE,Colisión,"Señalización, desobedecer señal ceda el paso",0,0,0,1,2,URBANO,AVDA. H. DE LA CONCEPCION,RIQUELME,,,,"IQUIQUE, AVDA. H. DE LA CONCEPCION, RIQUELME",-20.2307033,-70.1356692
27/07/2010,14:50,IQUIQUE,Volcadura,Conducción no atento condiciones transito momento,0,1,0,0,0,URBANO,AVDA. LA TIRANA,avda. fco. bilbao,,,,"IQUIQUE, AVDA. LA TIRANA, avda. fco. bilbao",-20.2691828,-70.1257417
28/07/2010,08:10,IQUIQUE,Choque,Velocidad no razonable ni prudente,0,0,1,0,0,URBANO,AVDA. A. PRAT,AMUNATEGUI,,,,"IQUIQUE, AVDA. A. PRAT, AMUNATEGUI",-20.2067534,-70.1452669
28/07/2010,08:30,IQUIQUE,Atropello,"Peatón, cruza calzada fuera paso peatones",0,1,0,0,1,URBANO,ORELLA,PATRICIO LYNCH,,,,"IQUIQUE, ORELLA, PATRICIO LYNCH",-20.2203193,-70.1515539
30/07/2010,04:30,IQUIQUE,Colisión,"Señalización, desobedecer señal ceda el paso",0,0,0,2,0,URBANO,CASTRO RAMOS,AVDA. LA TIRANA,,,,"IQUIQUE, CASTRO RAMOS, AVDA. LA TIRANA",-20.2444412,-70.1282904
31/07/2010,15:35,ALTO HOSPICIO,Choque,Conducción no atento condiciones transito momento,0,0,0,1,2,URBANO,CIRCUNVALACION,,3250,,,"ALTO HOSPICIO, CIRCUNVALACION, 3250",-20.2686722,-70.1049169
31/07/2010,15:50,IQUIQUE,Colisión,"Señalización, desobedecer señal ceda el paso",0,0,0,2,1,URBANO,CESPEDES GONZALEZ,ARTURO FERNANDEZ,,,,"IQUIQUE, CESPEDES GONZALEZ, ARTURO FERNANDEZ",-20.2245126,-70.1445436
31/07/2010,16:50,ALTO HOSPICIO,Atropello,"Peatón, cruza calzada forma sorpresiva o descuidada",0,1,0,0,1,URBANO,AV. LOS CONDORES X EL SALITRE,,2390,,,"ALTO HOSPICIO, AV. LOS CONDORES X EL SALITRE, 2390",-20.2719484,-70.1029629
01/08/2010,05:10,IQUIQUE,Colisión,"Señalización, desobedecer señal ceda el paso",0,1,0,0,0,URBANO,SAN MARTIN,E. RAMIREZ,,,,"IQUIQUE, SAN MARTIN, E. RAMIREZ",-20.2307033,-70.1356692
01/08/2010,07:20,IQUIQUE,Colisión,"Señalización, desobedecer señal pare",0,0,0,2,0,URBANO,AVDA. CERRO DRAGON,CASTRO RAMOS,,,,"IQUIQUE, AVDA. CERRO DRAGON, CASTRO RAMOS",-20.2443662,-70.129305
02/08/2010,11:25,IQUIQUE,Colisión,"Señalización, desobedecer señal pare",0,0,0,0,2,URBANO,PADRE HURTADO,CERRO DRAGON,,,,"IQUIQUE, PADRE HURTADO, CERRO DRAGON",-20.2603655,-70.1270142
03/08/2010,19:13,IQUIQUE,Atropello,"Señalización, desobedecer señal ceda el paso",0,0,0,1,1,URBANO,18 DE SEPTIEMBRE,ORELLA,,,,"IQUIQUE, 18 DE SEPTIEMBRE, ORELLA",-20.2208235,-70.1432206
04/08/2010,02:10,IQUIQUE,Atropello,Conducción no atento condiciones transito momento,0,0,0,1,1,URBANO,INTERIOR SERVICENTRO COPEC,AVDA. A. PRAT NRO. 1732,,,,"IQUIQUE, INTERIOR SERVICENTRO COPEC, AVDA. A. PRAT NRO. 1732",-20.2307033,-70.1356692
06/08/2010,08:50,ALTO HOSPICIO,Atropello,Causas no determinadas,0,0,1,0,1,URBANO,LOS GUINDALES CON AV. LOS AROMOS,,2790,,,"ALTO HOSPICIO, LOS GUINDALES CON AV. LOS AROMOS, 2790",-20.2729531,-70.0931598
06/08/2010,21:00,IQUIQUE,Colisión,"Señalización, desobedecer luz roja de semáforo",0,0,0,1,1,URBANO,ZEGERS,AVDA. PEDRO PRADO,,,,"IQUIQUE, ZEGERS, AVDA. PEDRO PRADO",-20.2182167,-70.1347514
07/08/2010,02:25,IQUIQUE,Colisión,Conducción en estado de ebriedad,0,0,0,1,1,URBANO,SOLDADO PEDRO PRADO,DIEGO PORTALES,,,,"IQUIQUE, SOLDADO PEDRO PRADO, DIEGO PORTALES",-20.2307248,-70.1356851
08/08/2010,18:00,IQUIQUE,Colisión,"Señalización, desobedecer señal ceda el paso",0,0,0,1,1,URBANO,AVDA. LA TIRANA,CASTRO RAMOS,,,,"IQUIQUE, AVDA. LA TIRANA, CASTRO RAMOS",-20.2444412,-70.1282904
08/08/2010,22:30,IQUIQUE,Volcadura,Conducción no atento condiciones transito momento,0,0,0,1,1,URBANO,AVDA. A. PRAT,AVDA. H. DE LA CONCEPCION,,,,"IQUIQUE, AVDA. A. PRAT, AVDA. H. DE LA CONCEPCION",-20.2484469,-70.1381101
09/08/2010,16:45,ALTO HOSPICIO,Atropello,Causas no determinadas,0,1,0,0,1,URBANO,AV. LOS AROMOS,,3720,,,"ALTO HOSPICIO, AV. LOS AROMOS, 3720",-20.2729531,-70.0931598
10/08/2010,18:50,IQUIQUE,Colisión,"Señalización, desobedecer señal ceda el paso",0,0,0,2,0,URBANO,RIQUELME,AMUNATEGUI,,,,"IQUIQUE, RIQUELME, AMUNATEGUI",-20.2176315,-70.1465983
11/08/2010,08:25,ALTO HOSPICIO,Colisión,"Vehiculo en retroceso, conducir",0,0,0,4,0,URBANO,GABRIELA MISTRAL,,4020,,,"ALTO HOSPICIO, GABRIELA MISTRAL, 4020",-20.2820561,-70.1035353
11/08/2010,10:30,ALTO HOSPICIO,Choque,Perdida control vehículo,0,0,0,0,1,URBANO,AV. LOS AROMOS CON RAUL ERLICH,,3790,,,"ALTO HOSPICIO, AV. LOS AROMOS CON RAUL ERLICH, 3790",-20.273488,-70.0931295
11/08/2010,12:30,IQUIQUE,Colisión,"Señalización, desobedecer señal pare",0,0,0,1,1,URBANO,ZEGERS,21 DE MAYO,,,,"IQUIQUE, ZEGERS, 21 DE MAYO",-20.2178506,-70.1419968
12/08/2010,09:00,IQUIQUE,Atropello,No respetar derecho preferente de paso a peatón,0,0,0,1,0,URBANO,TARAPACA,PATRICIO  LYNCH,,,,"IQUIQUE, TARAPACA, PATRICIO LYNCH",-20.2154369,-70.1513951
12/08/2010,14:00,IQUIQUE,Atropello,Conducción no atento condiciones transito momento,0,0,0,1,0,URBANO,AVDA. H. DE LA CONCEPCION,LAS ROZAS,,,,"IQUIQUE, AVDA. H. DE LA CONCEPCION, LAS ROZAS",-20.2307033,-70.1356692
12/08/2010,16:25,IQUIQUE,Atropello,"Peatón, cruza calzada forma sorpresiva o descuidada",0,0,0,1,1,URBANO,JUAN MARTINEZ,BULNES,,,,"IQUIQUE, JUAN MARTINEZ, BULNES",-20.2193059,-70.1455148
13/08/2010,18:40,IQUIQUE,Atropello,"Peatón, cruza calzada forma sorpresiva o descuidada",0,0,0,1,1,URBANO,AVDA. PRAT,DIEGO PORTALES,,,,"IQUIQUE, AVDA. PRAT, DIEGO PORTALES",-20.2307033,-70.1356692
14/08/2010,02:45,IQUIQUE,Colisión,"Señalización, desobedecer señal pare",0,0,0,2,0,URBANO,AVDA. LA TIRANA,CALLE UNO,,,,"IQUIQUE, AVDA. LA TIRANA, CALLE UNO",-20.2543166,-70.1260602
16/08/2010,13:05,IQUIQUE,Colisión,"Señalización, desobedecer luz roja de semáforo",0,0,0,3,2,URBANO,MANUEL BULNES,AVDA. PEDRO PRADO,,,,"IQUIQUE, MANUEL BULNES, AVDA. PEDRO PRADO",-20.2201814,-70.1349026
16/08/2010,21:30,IQUIQUE,Colisión,"Señalización, desobedecer señal ceda el paso",0,2,1,1,1,URBANO,LATORRE,ARTURO PEREZ CANTO,,,,"IQUIQUE, LATORRE, ARTURO PEREZ CANTO",-20.2175256,-70.1371063
17/08/2010,14:55,IQUIQUE,Colisión,Conducción no atento condiciones transito momento,0,0,0,1,1,URBANO,prat,,2108,,,"IQUIQUE, prat, 2108",-20.21265,-70.1401344
17/08/2010,17:40,IQUIQUE,Colisión,"Señalización, desobedecer señal pare",0,0,1,2,2,URBANO,ESMERALDA,PATRICIO LYNCH,,,,"IQUIQUE, ESMERALDA, PATRICIO LYNCH",-20.2154369,-70.1513951
17/08/2010,20:20,HUARA,Colisión,Conducción no atento condiciones transito momento,0,0,0,1,0,URBANO,JOSE MIGUEL CARRERA,ELEUTERIO RAMIREZ,,,,"HUARA, JOSE MIGUEL CARRERA, ELEUTERIO RAMIREZ",-19.9959408,-69.7712298
18/08/2010,17:20,IQUIQUE,Colisión,Conducción no atento condiciones transito momento,0,0,1,0,1,URBANO,AVDA. ARTURO PRAT,AVDA. P. HURTADO,,,,"IQUIQUE, AVDA. ARTURO PRAT, AVDA. P. HURTADO",-20.2625059,-70.130789
19/08/2010,09:20,IQUIQUE,Volcadura,"Condiciones físicas deficientes (cansancio, sueño)",0,1,0,0,0,RURAL,RUTA LA SAL 61B001,KLM 750,,,,"IQUIQUE, RUTA LA SAL 61B001, KLM 750",-20.2307033,-70.1356692
20/08/2010,13:45,IQUIQUE,Colisión,"Señalización, desobedecer señal ceda el paso",0,0,0,1,2,URBANO,PEDRO GAMBONI,AVDA. SALVADOR ALLENDE,,,,"IQUIQUE, PEDRO GAMBONI, AVDA. SALVADOR ALLENDE",-20.2364664,-70.1360525
21/08/2010,04:10,IQUIQUE,Atropello,Conducción bajo la influencia del alcohol,0,0,0,1,1,URBANO,AVDA. LA TIRANA,AVDA. CHIPANA,,,,"IQUIQUE, AVDA. LA TIRANA, AVDA. CHIPANA",-20.2518219,-70.1260999
21/08/2010,09:20,IQUIQUE,Colisión,Conducción en estado de ebriedad,0,0,0,0,1,URBANO,AVDA. LA TIRANA,CAMPOS DEPORTES,,,,"IQUIQUE, AVDA. LA TIRANA, CAMPOS DEPORTES",-20.227256,-70.1298393
21/08/2010,21:30,IQUIQUE,Choque,Conducción en estado de ebriedad,0,0,0,0,2,URBANO,COLO-COLO,BERNARDINO GUERRA,,,,"IQUIQUE, COLO-COLO, BERNARDINO GUERRA",-20.2296258,-70.1370293
22/08/2010,01:50,IQUIQUE,Colisión,Conducción en estado de ebriedad,0,0,0,1,1,URBANO,DIEGO PORTALES,AVDA. ARTURO PRAT,,,,"IQUIQUE, DIEGO PORTALES, AVDA. ARTURO PRAT",-20.244478,-70.1410328
22/08/2010,02:15,IQUIQUE,Volcadura,Conducción en estado de ebriedad,0,1,0,1,0,URBANO,LAS CABRAS,PUERTA NRO 12 ZOFRI,,,,"IQUIQUE, LAS CABRAS, PUERTA NRO 12 ZOFRI",-20.20843,-70.14043
22/08/2010,08:00,ALTO HOSPICIO,Choque,Perdida control vehículo,0,0,0,0,2,URBANO,LOS NOGALES,,3221,,,"ALTO HOSPICIO, LOS NOGALES, 3221",-20.2690265,-70.0982395
23/08/2010,00:25,IQUIQUE,Volcadura,Conducción en estado de ebriedad,0,3,0,0,0,URBANO,PATRICIO LYNCH,PLAYA CHIPANA,,,,"IQUIQUE, PATRICIO LYNCH, PLAYA CHIPANA",-20.2154369,-70.1513951
23/08/2010,03:00,ALTO HOSPICIO,Volcadura,Perdida control vehículo,0,0,0,1,1,URBANO,PARCELAS,,16,,,"ALTO HOSPICIO, PARCELAS, 16",-20.2671328,-70.0874421
23/08/2010,10:30,IQUIQUE,Colisión,"Fallas mecánicas, frenos",0,0,0,2,1,URBANO,ROTONDA EL PAMPINO,RUTA A-16,,,,"IQUIQUE, Rotonda EL PAMPINO, RUTA A-16",-20.22088,-70.132018
24/08/2010,18:50,IQUIQUE,Colisión,"Señalización, desobedecer señal ceda el paso",0,0,1,0,1,URBANO,GENARO GALLO,LAS MARGARITAS,,,,"IQUIQUE, GENARO GALLO, LAS MARGARITAS",-20.2350493,-70.138558
25/08/2010,09:20,IQUIQUE,Atropello,No respetar derecho preferente de paso a peatón,0,0,0,1,1,URBANO,wilson,anibal pinto,,,,"IQUIQUE, wilson, anibal pinto",-20.2167578,-70.1528862
25/08/2010,16:30,IQUIQUE,Atropello,No respetar derecho preferente de paso a peatón,0,0,0,1,1,URBANO,BARROS ARANA,TARAPACA,,,,"IQUIQUE, BARROS ARANA, TARAPACA",-20.2175833,-70.1474318
26/08/2010,08:45,IQUIQUE,Colisión,Conducción no atento condiciones transito momento,0,0,0,0,2,URBANO,BUGAMBILIAS,LOS GLADIOLOS,,,,"IQUIQUE, BUGAMBILIAS, LOS GLADIOLOS",-20.2330879,-70.1389157
27/08/2010,17:00,IQUIQUE,Colisión,"Señalización, desobedecer señal pare",0,0,0,1,2,URBANO,ZEGERS,21 DE MAYO,,,,"IQUIQUE, ZEGERS, 21 DE MAYO",-20.2178506,-70.1419968
28/08/2010,18:10,IQUIQUE,Colisión,"Señalización, desobedecer señal ceda el paso",0,0,0,2,0,URBANO,LOSE MIGUEL CARRERA,21 DE MAYO,,,,"IQUIQUE, LOSE MIGUEL CARRERA, 21 DE MAYO",-20.226596,-70.1425683
29/08/2010,09:10,IQUIQUE,Colisión,Conducción en estado de ebriedad,0,0,0,1,2,URBANO,ARTURO FERNANDEZ,SGTO. ALDEA,,,,"IQUIQUE, ARTURO FERNANDEZ, SGTO. ALDEA",-20.2161264,-70.1441618
29/08/2010,18:15,ALTO HOSPICIO,Atropello,"Peatón, cruza calzada forma sorpresiva o descuidada",0,0,0,1,1,URBANO,TILIVICHE,,2725,,,"ALTO HOSPICIO, TILIVICHE, 2725",-20.2690108,-70.1094165
30/08/2010,22:00,IQUIQUE,Colisión,No respetar derecho preferente de paso a vehículo,0,0,0,1,1,URBANO,ORELLA,AMUNATEGUI,,,,"IQUIQUE, ORELLA, AMUNATEGUI",-20.2206303,-70.146763
31/08/2010,07:45,IQUIQUE,Colisión,"Señalización, desobedecer señal ceda el paso",0,0,0,0,2,URBANO,ROTONDA EL PAMPINO,MANUEL RODRIGUEZ,,,,"IQUIQUE, Rotonda EL PAMPINO, MANUEL RODRIGUEZ",-20.22088,-70.132018
31/08/2010,19:15,ALTO HOSPICIO,Choque,Conducción en estado de ebriedad,0,0,2,1,0,URBANO,CALLE 09 CON PJE. 36,,15,,,"ALTO HOSPICIO, CALLE 09 CON PJE. 36, 15",-20.2686722,-70.1049169
01/09/2010,01:45,IQUIQUE,Atropello,No respetar derecho preferente de paso a peatón,0,0,1,0,1,URBANO,TADEO HAENKE,errazuriz sur,,,,"IQUIQUE, TADEO HAENKE, errazuriz sur",-20.2307033,-70.1356692
01/09/2010,16:30,IQUIQUE,Atropello,"Peatón, cruza calzada forma sorpresiva o descuidada",0,0,1,0,1,URBANO,SERRANO,OSCAR BONILLA,,,,"IQUIQUE, SERRANO, OSCAR BONILLA",-20.2141207,-70.1399322
01/09/2010,21:30,IQUIQUE,Atropello,Conducción no atento condiciones transito momento,0,0,0,1,1,URBANO,colon,,2556,,,"IQUIQUE, colon, 2556",-20.2414367,-70.1342598
02/09/2010,01:30,IQUIQUE,Volcadura,Conducción no atento condiciones transito momento,0,0,0,1,0,URBANO,INTERIOR TERMINAL AGRO,PUERTA ORIENTE,,,,"IQUIQUE, INTERIOR TERMINAL AGRO, PUERTA ORIENTE",-20.2307033,-70.1356692
02/09/2010,05:30,ALTO HOSPICIO,Volcadura,"Fallas mecánicas, frenos",0,0,0,1,1,URBANO,AV. LAS AMERICAS,,3800,,,"ALTO HOSPICIO, AV. LAS AMERICAS, 3800",-20.284577,-70.1018936
02/09/2010,17:45,IQUIQUE,Colisión,"Señalización, desobedecer señal ceda el paso",0,0,0,5,0,URBANO,ORELLA,ARTURO FERNANDEZ,,,,"IQUIQUE, ORELLA, ARTURO FERNANDEZ",-20.2207652,-70.1443587
03/09/2010,13:00,ALTO HOSPICIO,Choque,Conducción no atento condiciones transito momento,0,0,0,0,2,URBANO,SANTA ROSA DE MOLLE,,2,,,"ALTO HOSPICIO, SANTA ROSA DE MOLLE, 2",-20.2688621,-70.0900947
03/09/2010,13:40,IQUIQUE,Colisión,"Señalización, desobedecer señal ceda el paso",0,1,0,0,1,URBANO,HEROES DE LA CONCEPCION,TOMAS BONILLA,,,,"IQUIQUE, HEROES DE LA CONCEPCION, TOMAS BONILLA",-20.2276843,-70.1402925
03/09/2010,17:00,ALTO HOSPICIO,Caída,"Pasajero, imprudencia del",0,0,0,1,0,URBANO,AV. LAS AMERICAS,,2580,,,"ALTO HOSPICIO, AV. LAS AMERICAS, 2580",-20.284223,-70.1017622
03/09/2010,22:00,ALTO HOSPICIO,Atropello,No respetar derecho preferente de paso a peatón,0,0,0,2,1,URBANO,AV. LAS AMERICAS CON AV. SANTA MARIA,,3290,,,"ALTO HOSPICIO, AV. LAS AMERICAS CON AV. SANTA MARIA, 3290",-20.284429,-70.1018386
04/09/2010,13:30,ALTO HOSPICIO,Choque,Animales sueltos via publica,0,0,0,1,0,URBANO,AV. LAS AMERICAS,,2680,,,"ALTO HOSPICIO, AV. LAS AMERICAS, 2680",-20.2842521,-70.101773
04/09/2010,15:30,IQUIQUE,Choque,"Señalización, desobedecer señal ceda el paso",0,0,0,0,1,URBANO,AVDA. D. PORTALES,DIEGO PORTALES,,,,"IQUIQUE, AVDA. D. PORTALES, DIEGO PORTALES",-20.2307105,-70.1371321
05/09/2010,13:30,ALTO HOSPICIO,Atropello,"Vehiculo en retroceso, conducir",0,0,0,1,1,URBANO,AV. SANTA MARIA,,4083,,,"ALTO HOSPICIO, AV. SANTA MARIA, 4083",-20.2843451,-70.103453
05/09/2010,13:55,IQUIQUE,Atropello,No respetar derecho preferente de paso a peatón,0,0,1,0,1,URBANO,AVDA. PRAT,FTE. CASINO DE JUEGO,,,,"IQUIQUE, AVDA. PRAT, FTE. CASINO DE JUEGO",-20.2307033,-70.1356692
05/09/2010,15:30,ALTO HOSPICIO,Choque,Conducción sin mantener distancia razonable ni prudente,0,0,1,0,2,URBANO,LOS AROMOS CON LOS GUINDALES,,3790,,,"ALTO HOSPICIO, LOS AROMOS CON LOS GUINDALES, 3790",-20.2620823,-70.1027481
06/09/2010,19:40,IQUIQUE,Colisión,"Señalización, desobedecer luz roja de semáforo",0,0,0,1,1,URBANO,AVDA. A. PRATT,SANTIAGO POLANCO,,,,"IQUIQUE, AVDA. A. PRATT, SANTIAGO POLANCO",-20.2466747,-70.1321136
07/09/2010,13:05,IQUIQUE,Colisión,"Señalización, desobedecer señal ceda el paso",0,0,1,0,1,URBANO,LUIS CRUZ MARTINEZ,VICENTE ZEGERS,,,,"IQUIQUE, LUIS CRUZ MARTINEZ, VICENTE ZEGERS",-20.2180367,-70.1385098
08/09/2010,12:05,IQUIQUE,Colisión,"Señalización, desobedecer señal ceda el paso",0,0,0,1,2,URBANO,MOISES GONZALEZ,AVDA. HEROES DE LA CONCEPCION,,,,"IQUIQUE, MOISES GONZALEZ, AVDA. HEROES DE LA CONCEPCION",-20.2103074,-70.1384064
08/09/2010,13:50,IQUIQUE,Atropello,No respetar derecho preferente de paso a peatón,0,0,0,1,1,URBANO,LIBERTAD,OSCAR BONILLA,,,,"IQUIQUE, LIBERTAD, OSCAR BONILLA",-20.2194645,-70.1403842
08/09/2010,15:55,ALTO HOSPICIO,Choque,Conducción no atento condiciones transito momento,0,0,0,1,1,URBANO,TILIVICHI,,3033,,,"ALTO HOSPICIO, TILIVICHI, 3033",-20.2699325,-70.1087812
09/09/2010,06:20,IQUIQUE,Atropello,Conducción no atento condiciones transito momento,0,1,0,0,1,URBANO,GOMEZ CARREÑO,ALMIRANTE MERINO,,,,"IQUIQUE, GOMEZ CARREÑO, ALMIRANTE MERINO",-20.2333352,-70.1324357
09/09/2010,08:30,ALTO HOSPICIO,Choque,Conducción no atento condiciones transito momento,0,0,0,1,2,URBANO,AV. LOS ALAMOS CON LOS NOGALES,,2790,,,"ALTO HOSPICIO, AV. LOS ALAMOS CON LOS NOGALES, 2790",-20.2662507,-70.1025442
09/09/2010,09:50,ALTO HOSPICIO,Atropello,No respetar derecho preferente de paso a peatón,0,0,0,1,1,URBANO,AV. LOS ALAMOS CON LOS NARANJOS,,3290,,,"ALTO HOSPICIO, AV. LOS ALAMOS CON LOS NARANJOS, 3290",-20.2686722,-70.1049169
09/09/2010,16:05,ALTO HOSPICIO,Atropello,"Vehiculo en retroceso, conducir",0,0,0,1,0,URBANO,AV. LOS AROMOS,,3990,,,"ALTO HOSPICIO, AV. LOS AROMOS, 3990",-20.2736208,-70.0927863
09/09/2010,17:00,IQUIQUE,Choque,Conducción sin mantener distancia razonable ni prudente,0,0,0,2,0,URBANO,AVDA. CAMPOS DEPORTES,JUAN GUIREAUX,,,,"IQUIQUE, AVDA. CAMPOS DEPORTES, JUAN GUIREAUX",-20.2307033,-70.1356692
10/09/2010,02:10,IQUIQUE,Colisión,"Señalización, desobedecer señal pare",0,0,0,1,1,URBANO,ARTURO PEREZ CANTO,HERNAN FUENZALIDA,,,,"IQUIQUE, ARTURO PEREZ CANTO, HERNAN FUENZALIDA",-20.2288673,-70.1384204
10/09/2010,10:50,IQUIQUE,Atropello,No respetar derecho preferente de paso a peatón,0,0,0,1,1,URBANO,AVDA. PLAYA BRAVA,SECTOR DE LOS JUEGOS,,,,"IQUIQUE, AVDA. PLAYA BRAVA, SECTOR DE LOS JUEGOS",-20.2479851,-70.1368551
11/09/2010,12:00,IQUIQUE,Colisión,"Señalización, desobedecer luz roja de semáforo",0,0,1,2,1,URBANO,AVDA LA TIRANA,TADEO HAENKE,,,,"IQUIQUE, AVDA LA TIRANA, TADEO HAENKE",-20.2382135,-70.1286667
12/09/2010,09:25,IQUIQUE,Colisión,Conducción en estado de ebriedad,0,0,0,0,2,URBANO,CESPEDES GONZALEZ,VIVAR,,,,"IQUIQUE, CESPEDES GONZALEZ, VIVAR",-20.2243074,-70.149329
13/09/2010,09:30,IQUIQUE,Colisión,"Señalización, desobedecer señal ceda el paso",0,0,0,1,0,URBANO,AVDA. HEROES DE LA CONCEPCION,RIQUELME,,,,"IQUIQUE, AVDA. HEROES DE LA CONCEPCION, RIQUELME",-20.2265534,-70.1400001
13/09/2010,13:15,IQUIQUE,Atropello,No respetar derecho preferente de paso a peatón,0,0,1,0,1,URBANO,AVDA. HEROES DE LA CONCEPCION,CESPEDES GONZALEZ,,,,"IQUIQUE, AVDA. HEROES DE LA CONCEPCION, CESPEDES GONZALEZ",-20.2247382,-70.139754
14/09/2010,10:30,IQUIQUE,Atropello,"Peatón, cruza calzada forma sorpresiva o descuidada",0,0,1,0,1,URBANO,ZEGERS,FCO. ERRAZURIZ,,,,"IQUIQUE, ZEGERS, FCO. ERRAZURIZ",-20.2307033,-70.1356692
15/09/2010,20:00,IQUIQUE,Atropello,"Peatón, cruza calzada forma sorpresiva o descuidada",0,0,0,1,1,URBANO,CALLE 5,AVDA. LA TIRANA,,,,"IQUIQUE, CALLE 5, AVDA. LA TIRANA",-20.2890618,-70.1259748
16/09/2010,14:30,ALTO HOSPICIO,Atropello,No respetar derecho preferente de paso a peatón,0,0,0,2,1,URBANO,AV. LOS AROMOS CON CALLE LOS NARANJOS,,2390,,,"ALTO HOSPICIO, AV. LOS AROMOS CON CALLE LOS NARANJOS, 2390",-20.2686722,-70.1049169
16/09/2010,21:50,IQUIQUE,Colisión,Conducción en estado de ebriedad,0,2,0,2,0,URBANO,SOLDADO PEDRO PRADO,AVDA. RAMON PEREZ OPAZO,,,,"IQUIQUE, SOLDADO PEDRO PRADO, AVDA. RAMON PEREZ OPAZO",-20.2542691,-70.1314071
17/09/2010,16:00,IQUIQUE,Atropello,"Peatón, cruza calzada forma sorpresiva o descuidada",0,0,0,1,1,URBANO,PILOTO PARDO,AVDA. HEROES DE LA CONCEPCION,,,,"IQUIQUE, PILOTO PARDO, AVDA. HEROES DE LA CONCEPCION",-20.2133583,-70.1388275
17/09/2010,22:45,IQUIQUE,Atropello,Conducción en estado de ebriedad,0,0,0,1,1,URBANO,AVDA. H. DE LA CONCEPCION,THOMPSON,,,,"IQUIQUE, AVDA. H. DE LA CONCEPCION, THOMPSON",-20.2307033,-70.1356692
18/09/2010,06:05,IQUIQUE,Colisión,Conducción en estado de ebriedad,0,0,0,8,0,URBANO,AVDA. FCO BILBAO,AVDA. PADRE HURTADO,,,,"IQUIQUE, AVDA. FCO BILBAO, AVDA. PADRE HURTADO",-20.2616614,-70.129137
18/09/2010,17:20,IQUIQUE,Colisión,"Señalización, desobedecer señal ceda el paso",0,0,1,3,2,URBANO,SGTO. ALDEA,AVDA. HEROES DE LA CONCEPCION,,,,"IQUIQUE, SGTO. ALDEA, AVDA. HEROES DE LA CONCEPCION",-20.2163207,-70.1391357
19/09/2010,01:00,IQUIQUE,Atropello,No respetar derecho preferente de paso a peatón,0,0,0,1,1,URBANO,AVDA. P. PRADO,MANUEL BULNES,,,,"IQUIQUE, AVDA. P. PRADO, MANUEL BULNES",-20.2201814,-70.1349026
20/09/2010,00:10,ALTO HOSPICIO,Atropello,Peatón permanece sobre la calzada,0,0,0,1,0,URBANO,AV. LAS AMERICAS,,65,,,"ALTO HOSPICIO, AV. LAS AMERICAS, 65",-20.2936671,-70.105551
21/09/2010,15:00,IQUIQUE,Atropello,No respetar derecho preferente de paso a peatón,0,0,0,1,1,URBANO,CALLE 5,COLEGIO HISPANO BRITANICO,,,,"IQUIQUE, CALLE 5, COLEGIO HISPANO BRITANICO",-20.2651579,-70.1255736
21/09/2010,17:50,IQUIQUE,Colisión,"Señalización, desobedecer señal pare",0,0,1,3,1,URBANO,LAS ROZAS,GENARO GALLO,,,,"IQUIQUE, LAS ROZAS, GENARO GALLO",-20.2374219,-70.1391931
22/09/2010,10:10,ALTO HOSPICIO,Colisión,Conducción no atento condiciones transito momento,0,0,0,0,2,URBANO,AV. LOS AROMOS CON AV. LOS ALAMOS,,3290,,,"ALTO HOSPICIO, AV. LOS AROMOS CON AV. LOS ALAMOS, 3290",-20.2686722,-70.1049169
22/09/2010,19:45,IQUIQUE,Colisión,"Señalización, desobedecer señal ceda el paso",0,0,0,1,1,URBANO,AVDA. DIEGO PORTALES,21 DE MAYO,,,,"IQUIQUE, AVDA. DIEGO PORTALES, 21 DE MAYO",-20.2296416,-70.1427763
23/09/2010,13:50,IQUIQUE,Colisión,"Señalización, desobedecer señal pare",0,0,0,1,2,URBANO,MAITENES,ORELLA,,,,"IQUIQUE, MAITENES, ORELLA",-20.2213609,-70.1334644
24/09/2010,04:20,IQUIQUE,Colisión,Conducción en estado de ebriedad,0,4,0,3,0,URBANO,AVDA. H. DE LA CONCEPCION,MANUEL BULNES,,,,"IQUIQUE, AVDA. H. DE LA CONCEPCION, MANUEL BULNES",-20.2197049,-70.1437707
24/09/2010,17:39,IQUIQUE,Colisión,"Señalización, desobedecer señal ceda el paso",0,1,1,1,0,URBANO,AVDA. CHIPANA,CERRO DRAGON,,,,"IQUIQUE, AVDA. CHIPANA, CERRO DRAGON",-20.2455526,-70.1292691
24/09/2010,19:20,IQUIQUE,Colisión,Conducción no atento condiciones transito momento,0,1,0,4,0,URBANO,GENARO GALLO,AVDA. TADEO HEANKE,,,,"IQUIQUE, GENARO GALLO, AVDA. TADEO HEANKE",-20.2394749,-70.1403552
25/09/2010,20:40,IQUIQUE,Choque,Conducción no atento condiciones transito momento,0,0,0,2,1,URBANO,DIEGO PORTALES,LINCOYAN,,,,"IQUIQUE, DIEGO PORTALES, LINCOYAN",-20.2306178,-70.1381075
26/09/2010,03:00,IQUIQUE,Colisión,"Señalización, desobedecer señal ceda el paso",1,0,1,0,0,URBANO,GOROSTIAGA,OBISPO LABBE,,,,"IQUIQUE, GOROSTIAGA, OBISPO LABBE",-20.2164075,-70.1503176
26/09/2010,08:30,ALTO HOSPICIO,Colisión,Virajes indebidos,0,0,0,1,2,URBANO,AV. LA PAMPA CON LOS CONDORES,,2790,,,"ALTO HOSPICIO, AV. LA PAMPA CON LOS CONDORES, 2790",-20.2660373,-70.1087388
26/09/2010,14:00,IQUIQUE,Colisión,"Señalización, desobedecer señal pare",0,0,0,3,0,URBANO,ARTURO FERNANDEZ,CESPEDES GONZALEZ,,,,"IQUIQUE, ARTURO FERNANDEZ, CESPEDES GONZALEZ",-20.2245126,-70.1445436
27/09/2010,09:50,IQUIQUE,Colisión,Conducción no atento condiciones transito momento,0,0,0,0,2,URBANO,OHIGGINS,ESTACIONAMIENTO CLUB NORTE AMERICA,,,,"IQUIQUE, OHIGGINS, ESTACIONAMIENTO CLUB NORTE AMERICA",-20.2183828,-70.1540098
27/09/2010,18:45,IQUIQUE,Colisión,"Señalización, desobedecer señal pare",0,0,0,3,1,URBANO,OBISPO LABBE,ORELLA,,,,"IQUIQUE, OBISPO LABBE, ORELLA",-20.2203861,-70.1504462
28/09/2010,14:45,ALTO HOSPICIO,Choque,Perdida control vehículo,0,0,0,1,1,URBANO,AV. PAMPA UNION,,3360,,,"ALTO HOSPICIO, AV. PAMPA UNION, 3360",-20.2746792,-70.1074268
29/09/2010,23:50,IQUIQUE,Choque,Conducción no atento condiciones transito momento,0,0,0,0,2,URBANO,AVDA. PRAT,RAMIREZ,,,,"IQUIQUE, AVDA. PRAT, RAMIREZ",-20.2307033,-70.1356692
30/09/2010,14:40,IQUIQUE,Atropello,"Velocidad, no reducir cruce de calles, cumbre, curva,etc.",0,0,1,0,0,URBANO,TADEO HAENKE,RANCAGUA,,,,"IQUIQUE, TADEO HAENKE, RANCAGUA",-20.2402494,-70.131756
30/09/2010,15:30,IQUIQUE,Atropello,No respetar derecho preferente de paso a peatón,0,0,1,0,1,URBANO,LOS GLADIOLOS,GENARO GALLO,,,,"IQUIQUE, LOS GLADIOLOS, GENARO GALLO",-20.2334817,-70.1379182
01/10/2010,08:40,ALTO HOSPICIO,Colisión,Adelantamiento sin el espacio y tiempo suficiente,0,0,0,0,2,URBANO,AV. SANTA MARIA CON ALFONSINA STORNI,,3270,,,"ALTO HOSPICIO, AV. SANTA MARIA CON ALFONSINA STORNI, 3270",-20.2829784,-70.097833
01/10/2010,09:30,IQUIQUE,Colisión,"Señalización, desobedecer señal ceda el paso",0,0,0,2,1,URBANO,AVDA. LA TIRANA,EL MONTE,,,,"IQUIQUE, AVDA. LA TIRANA, EL MONTE",-20.2543166,-70.1260602
01/10/2010,13:40,ALTO HOSPICIO,Colisión,No respetar derecho preferente de paso a vehículo,0,0,0,1,0,URBANO,LOS PEPINOS ESQUINA LOS TUMBOS,,3900,,,"ALTO HOSPICIO, LOS PEPINOS ESQUINA LOS TUMBOS, 3900",-20.2669813,-70.1037804
01/10/2010,15:50,IQUIQUE,Atropello,No respetar derecho preferente de paso a peatón,0,0,1,0,1,URBANO,MAULE,RANCAGUA,,,,"IQUIQUE, MAULE, RANCAGUA",-20.2307033,-70.1356692
01/10/2010,20:00,ALTO HOSPICIO,Otros,Pasajero sube o desciende de vehículo movimiento,0,0,0,1,0,URBANO,AV. LOS ALAMOS CON AV. LOS AROMOS,,3590,,,"ALTO HOSPICIO, AV. LOS ALAMOS CON AV. LOS AROMOS, 3590",-20.2662507,-70.1025442
02/10/2010,04:25,IQUIQUE,Choque,Conducción en estado de ebriedad,0,0,0,2,1,URBANO,AVDA. LA TIRANA,CASTRO RAMOS,,,,"IQUIQUE, AVDA. LA TIRANA, CASTRO RAMOS",-20.2444412,-70.1282904
04/10/2010,04:30,IQUIQUE,Volcadura,Conducción en estado de ebriedad,0,0,0,2,0,URBANO,AVDA. PRAT,,1670,,,"IQUIQUE, AVDA. PRAT, 1670",-20.2476674,-70.1383188
04/10/2010,09:30,IQUIQUE,Atropello,No respetar derecho preferente de paso a peatón,0,0,0,1,0,URBANO,RANCAGUA,CASTRO RAMOS,,,,"IQUIQUE, RANCAGUA, CASTRO RAMOS",-20.2445158,-70.131685
04/10/2010,18:20,IQUIQUE,Atropello,Conducción no atento condiciones transito momento,0,1,0,0,1,URBANO,JUAN MARTINEZ,VICENTE SEGERS,,,,"IQUIQUE, JUAN MARTINEZ, VICENTE SEGERS",-20.2307033,-70.1356692
05/10/2010,15:45,IQUIQUE,Colisión,"Señalización, desobedecer señal ceda el paso",0,0,0,1,1,URBANO,THOMPSON,ARTURO FERNANDEZ,,,,"IQUIQUE, THOMPSON, ARTURO FERNANDEZ",-20.2152276,-70.1441196
05/10/2010,18:30,ALTO HOSPICIO,Choque,Conducción sin mantener distancia razonable ni prudente,0,0,0,1,2,URBANO,AV. LOS AROMOS CON PJE. SAN FRANCISCO,,3290,,,"ALTO HOSPICIO, AV. LOS AROMOS CON PJE. SAN FRANCISCO, 3290",-20.2686722,-70.1049169
06/10/2010,07:20,IQUIQUE,Colisión,"Señalización, desobedecer señal pare",0,0,0,1,0,URBANO,HERNAN FUENZALIDA,ARTURO FERNANDEZ,,,,"IQUIQUE, HERNAN FUENZALIDA, ARTURO FERNANDEZ",-20.2285882,-70.144682
07/10/2010,07:40,IQUIQUE,Colisión,"Señalización, semáforo mal estado o deficiente",0,0,0,3,0,URBANO,AVDA. AEROPUERTO,TADEO HAENKE,,,,"IQUIQUE, AVDA. AEROPUERTO, TADEO HAENKE",-20.2307033,-70.1356692
07/10/2010,15:00,IQUIQUE,Colisión,"Señalización, desobedecer señal pare",0,0,0,2,0,URBANO,21 DE MAYO,ZEGERS,,,,"IQUIQUE, 21 DE MAYO, ZEGERS",-20.2177736,-70.143625
08/10/2010,23:30,IQUIQUE,Colisión,"Señalización, desobedecer señal ceda el paso",0,0,0,1,2,URBANO,AVDA. LA TIRANA,CASTRO RAMOS,,,,"IQUIQUE, AVDA. LA TIRANA, CASTRO RAMOS",-20.2444412,-70.1282904
09/10/2010,19:30,IQUIQUE,Choque,"Señalización, desobedecer señal ceda el paso",0,0,0,0,2,URBANO,AVDA. LA TIRANA,CASTRO RAMOS,,,,"IQUIQUE, AVDA. LA TIRANA, CASTRO RAMOS",-20.2444412,-70.1282904
09/10/2010,23:55,IQUIQUE,Colisión,"Señalización, desobedecer señal ceda el paso",0,0,0,3,0,URBANO,PLAYA BRAVA,SALVADOR ALLENDE,,,,"IQUIQUE, PLAYA BRAVA, SALVADOR ALLENDE",-20.2479851,-70.1368551
10/10/2010,08:15,IQUIQUE,Volcadura,Conducción en estado de ebriedad,0,0,0,13,1,RURAL,RUTA A-1,,373,,,"IQUIQUE, RUTA A-1, 373",-20.2414367,-70.1342598
11/10/2010,20:05,POZO ALMONTE,Atropello,Conducción no atento condiciones transito momento,0,0,0,0,3,URBANO,SANTA ROSA,,0,,,"POZO ALMONTE, SANTA ROSA, 0",-20.2570503,-69.7857064
12/10/2010,09:45,IQUIQUE,Colisión,"Señalización, desobedecer señal ceda el paso",0,0,0,1,1,URBANO,JOSE JOAQUIN PEREZ,AVDA. H. DE LA CONCEPCION,,,,"IQUIQUE, JOSE JOAQUIN PEREZ, AVDA. H. DE LA CONCEPCION",-20.2227166,-70.1417354
12/10/2010,14:45,IQUIQUE,Atropello,No respetar derecho preferente de paso a peatón,0,0,0,1,1,URBANO,PATRICIO LYNCH,TARAPACA,,,,"IQUIQUE, PATRICIO LYNCH, TARAPACA",-20.2154369,-70.1513951
13/10/2010,11:30,IQUIQUE,Atropello,Conducción no atento condiciones transito momento,0,0,0,1,1,URBANO,JUAN MARTINEZ,SAN MARTIN,,,,"IQUIQUE, JUAN MARTINEZ, SAN MARTIN",-20.2128199,-70.1448148
13/10/2010,18:00,POZO ALMONTE,Atropello,"Peatón, cruza calzada forma sorpresiva o descuidada",0,0,0,1,1,URBANO,la noria sta ana,,0,,,"POZO ALMONTE, la noria sta ana, 0",-20.2570503,-69.7857064
13/10/2010,20:30,ALTO HOSPICIO,Choque,Otras causas,0,0,0,0,1,URBANO,CALLE EL MIRADOR,,3648,,,"ALTO HOSPICIO, CALLE EL MIRADOR, 3648",-20.2739184,-70.1034356
14/10/2010,09:00,IQUIQUE,Colisión,Conducción contra sentido del transito,0,0,0,1,1,URBANO,INTERIOR RECINTO ZOFRI,MANZANA 09 GALPON 62,,,,"IQUIQUE, INTERIOR RECINTO ZOFRI, MANZANA 09 GALPON 62",-20.206958,-70.1404458
15/10/2010,13:20,IQUIQUE,Colisión,"Señalización, desobedecer señal ceda el paso",0,0,0,1,1,URBANO,AVDA. CASTRO RAMOS,FCO. VERGARA,,,,"IQUIQUE, AVDA. CASTRO RAMOS, FCO. VERGARA",-20.2451662,-70.1355174
15/10/2010,16:30,IQUIQUE,Atropello,No respetar derecho preferente de paso a peatón,0,0,0,1,1,URBANO,LAS MARGARITAS,GENARO GALLO,,,,"IQUIQUE, LAS MARGARITAS, GENARO GALLO",-20.2350493,-70.138558
16/10/2010,05:40,IQUIQUE,Volcadura,Conducción en estado de ebriedad,0,0,1,2,1,URBANO,AVDA. LA TIRANA,DIEGO PORTALES,,,,"IQUIQUE, AVDA. LA TIRANA, DIEGO PORTALES",-20.2309225,-70.1284733
16/10/2010,23:00,IQUIQUE,Choque,Conducción en estado de ebriedad,0,0,0,0,3,URBANO,AVDA. ARTURO PRAT,SANTIAGO POLANCO,,,,"IQUIQUE, AVDA. ARTURO PRAT, SANTIAGO POLANCO",-20.2484469,-70.1381101
17/10/2010,03:00,ALTO HOSPICIO,Choque,Conducción en estado de ebriedad,0,0,1,3,0,URBANO,PASAJE GUINEA,,1,,,"ALTO HOSPICIO, PASAJE GUINEA, 1",-20.2870418,-70.1028973
17/10/2010,03:40,IQUIQUE,Choque,Conducción en estado de ebriedad,0,0,0,4,0,URBANO,ZEGERS,ARTURO FERNANDEZ,,,,"IQUIQUE, ZEGERS, ARTURO FERNANDEZ",-20.2177479,-70.1442373
17/10/2010,18:00,IQUIQUE,Colisión,"Señalización, desobedecer señal ceda el paso",0,0,0,1,2,URBANO,SGTO. ALDEA,AVDA. HEROES DE LA CONCEPCION,,,,"IQUIQUE, SGTO. ALDEA, AVDA. HEROES DE LA CONCEPCION",-20.2163207,-70.1391357
17/10/2010,18:55,ALTO HOSPICIO,Atropello,Peatón permanece sobre la calzada,0,0,0,1,1,URBANO,AV. LOS ALAMOS,,2377,,,"ALTO HOSPICIO, AV. LOS ALAMOS, 2377",-20.2725208,-70.1091116
18/10/2010,19:30,IQUIQUE,Atropello,No respetar derecho preferente de paso a peatón,0,0,1,0,1,URBANO,BARROS ARANA,MANUEL RODRIGUEZ,,,,"IQUIQUE, BARROS ARANA, MANUEL RODRIGUEZ",-20.2234394,-70.1477687
20/10/2010,16:30,IQUIQUE,Caída,Otras causas,0,0,1,0,0,URBANO,SOLDADO P. PRADO,LOS GLADIOLOS,,,,"IQUIQUE, SOLDADO P. PRADO, LOS GLADIOLOS",-20.2337606,-70.1362908
20/10/2010,20:45,ALTO HOSPICIO,Colisión,Conducción no atento condiciones transito momento,0,0,0,1,2,URBANO,LOS NOGALES,,2455,,,"ALTO HOSPICIO, LOS NOGALES, 2455",-20.2619916,-70.1040999
22/10/2010,19:30,IQUIQUE,Atropello,"Peatón, cruza calzada forma sorpresiva o descuidada",0,0,0,1,1,URBANO,MANUEL BULNES,PEDRO PRADO,,,,"IQUIQUE, MANUEL BULNES, PEDRO PRADO",-20.2201814,-70.1349026
23/10/2010,15:30,IQUIQUE,Colisión,"Señalización, desobedecer señal pare",0,0,0,2,0,URBANO,HERNAN FUENZALIDA,CASTRO RAMOS,,,,"IQUIQUE, HERNAN FUENZALIDA, CASTRO RAMOS",-20.2307033,-70.1356692
23/10/2010,23:10,ALTO HOSPICIO,Atropello,Peatón permanece sobre la calzada,0,0,0,1,1,URBANO,AV. LA PAMPA,,3649,,,"ALTO HOSPICIO, AV. LA PAMPA, 3649",-20.2785384,-70.1032003
24/10/2010,05:10,IQUIQUE,Colisión,Conducción en estado de ebriedad,1,1,0,1,0,URBANO,DIAGONAL FCO. BILBAO,,3860,,,"IQUIQUE, DIAGONAL FCO. BILBAO, 3860",-20.264996,-70.1269482
24/10/2010,15:10,POZO ALMONTE,Colisión,Conducción contra sentido del transito,0,0,0,1,1,URBANO,buen retiro con pampa germania,,0,,,"POZO ALMONTE, buen retiro con pampa germania, 0",-20.2613588,-69.7846368
24/10/2010,20:05,IQUIQUE,Colisión,"Señalización, desobedecer señal ceda el paso",0,0,0,1,1,URBANO,AVDA. LA TIRANA,CASTRO RAMOS,,,,"IQUIQUE, AVDA. LA TIRANA, CASTRO RAMOS",-20.2444412,-70.1282904
26/10/2010,04:40,IQUIQUE,Choque,Conducción en estado de ebriedad,0,0,0,0,1,URBANO,AVDA. LOS HEROES DE LA CONCEPCION,TARAPACA,,,,"IQUIQUE, AVDA. LOS HEROES DE LA CONCEPCION, TARAPACA",-20.2111906,-70.1384119
27/10/2010,07:30,IQUIQUE,Colisión,"Señalización, desobedecer señal pare",0,0,0,1,2,URBANO,ESMERALDA,BARROS ARANA,,,,"IQUIQUE, ESMERALDA, BARROS ARANA",-20.2116628,-70.1470863
27/10/2010,08:00,IQUIQUE,Choque,Conducción no atento condiciones transito momento,0,0,0,1,1,URBANO,AVDA. FCO BILBAO,CALLE 01,,,,"IQUIQUE, AVDA. FCO BILBAO, CALLE 01",-20.2307033,-70.1356692
28/10/2010,08:35,ALTO HOSPICIO,Colisión,"Conducción, cambiar sorpresivamente pista circulación",0,0,0,0,2,URBANO,AV. LAS AMERICAS,,2745,,,"ALTO HOSPICIO, AV. LAS AMERICAS, 2745",-20.2809565,-70.1010545
28/10/2010,19:45,ALTO HOSPICIO,Choque,Perdida control vehículo,0,0,0,0,1,URBANO,CALLE ALTO MOLLE CON PJE. MARIA ENCARNACION,,3670,,,"ALTO HOSPICIO, CALLE ALTO MOLLE CON PJE. MARIA ENCARNACION, 3670",-20.2770148,-70.1020269
29/10/2010,18:55,IQUIQUE,Colisión,"Señalización, desobedecer señal pare",0,0,0,1,1,URBANO,LAS GAVIOTAS,AVDA. A. PRAT,,,,"IQUIQUE, LAS GAVIOTAS, AVDA. A. PRAT",-20.2307033,-70.1356692
30/10/2010,17:25,ALTO HOSPICIO,Atropello,No respetar derecho preferente de paso a peatón,0,1,1,0,1,URBANO,PJE. SANTA EMA CON PJE. SANTA ANGELA,,2390,,,"ALTO HOSPICIO, PJE. SANTA EMA CON PJE. SANTA ANGELA, 2390",-20.2773271,-70.0954112
30/10/2010,20:00,IQUIQUE,Atropello,"Peatón, cruza calzada forma sorpresiva o descuidada",0,0,0,1,1,URBANO,DIEGO PORTALES,12 ORIENTE,,,,"IQUIQUE, DIEGO PORTALES, 12 ORIENTE",-20.2307033,-70.1356692
31/10/2010,14:15,IQUIQUE,Colisión,"Señalización, desobedecer luz roja de semáforo",0,0,0,1,1,URBANO,21 DE MAYO,ORELLA,,,,"IQUIQUE, 21 DE MAYO, ORELLA",-20.2208923,-70.1421601
01/11/2010,09:35,ALTO HOSPICIO,Otros,Otras causas,1,0,0,0,0,URBANO,LOS AROMOS,RICARDO LAGOS,,,,"ALTO HOSPICIO, LOS AROMOS, RICARDO LAGOS",-20.2686722,-70.1049169
01/11/2010,17:40,IQUIQUE,Colisión,"Señalización, semáforo mal estado o deficiente",0,0,0,4,0,URBANO,ORELLA,ARTURO FERNANDEZ,,,,"IQUIQUE, ORELLA, ARTURO FERNANDEZ",-20.2207652,-70.1443587
02/11/2010,09:25,IQUIQUE,Colisión,"Señalización, desobedecer señal pare",0,0,0,0,1,URBANO,GOMEZ CARREÑO,CERRO DRAGON,,,,"IQUIQUE, GOMEZ CARREÑO, CERRO DRAGON",-20.2330057,-70.1302175
02/11/2010,12:15,ALTO HOSPICIO,Colisión,"Señalización, desobedecer luz roja de semáforo",0,0,0,1,1,URBANO,AV. CIRCUNVALACION,,,Ruta 16,39.2,"ALTO HOSPICIO, AV. CIRCUNVALACION",-20.2853229,-70.1048561
03/11/2010,09:00,IQUIQUE,Colisión,"Señalización, desobedecer luz roja de semáforo",0,0,0,6,1,URBANO,AVDA. L. BERNARDO OHIGGINS,AVDA. H. DE LA CONCEPCION,,,,"IQUIQUE, AVDA. L. BERNARDO OHIGGINS, AVDA. H. DE LA CONCEPCION",-20.2188278,-70.1436951
03/11/2010,09:15,IQUIQUE,Colisión,"Señalización, desobedecer señal pare",0,0,0,2,2,URBANO,CESPEDES GONZALEZ,18 DE SEPTIEMBRE,,,,"IQUIQUE, CESPEDES GONZALEZ, 18 DE SEPTIEMBRE",-20.2245658,-70.1435295
03/11/2010,14:40,ALTO HOSPICIO,Atropello,No respetar derecho preferente de paso a peatón,0,0,0,1,1,URBANO,AV. LOS ALAMOS CON LOS MANZANOS,,3290,,,"ALTO HOSPICIO, AV. LOS ALAMOS CON LOS MANZANOS, 3290",-20.2703146,-70.0983096
03/11/2010,21:40,IQUIQUE,Colisión,"Señalización, desobedecer señal ceda el paso",0,0,0,1,2,URBANO,ERRAZURIZ,SGTO. ALDEA,,,,"IQUIQUE, ERRAZURIZ, SGTO. ALDEA",-20.2161356,-70.1435283
04/11/2010,07:40,IQUIQUE,Colisión,"Señalización, desobedecer señal ceda el paso",0,0,0,1,1,URBANO,AVDA. LA TIRANA,CAMPOS DEPORTES,,,,"IQUIQUE, AVDA. LA TIRANA, CAMPOS DEPORTES",-20.227256,-70.1298393
04/11/2010,15:00,ALTO HOSPICIO,Atropello,"Vehiculo en retroceso, conducir",0,0,0,1,1,URBANO,AV. LOS CONDORES,,3350,,,"ALTO HOSPICIO, AV. LOS CONDORES, 3350",-20.2709877,-70.1064781
05/11/2010,06:15,ALTO HOSPICIO,Choque,Conducción en estado de ebriedad,0,0,0,0,1,URBANO,CALLE FRANCIA ESQUINA SUECIA,,77,,,"ALTO HOSPICIO, CALLE FRANCIA ESQUINA SUECIA, 77",-20.2686722,-70.1049169
05/11/2010,07:45,IQUIQUE,Choque,Conducción no atento condiciones transito momento,0,0,0,0,2,URBANO,AV. LA TIRANA,AVDA. LA TIRANA,,,,"IQUIQUE, AV. LA TIRANA, AVDA. LA TIRANA",-20.2543166,-70.1260602
06/11/2010,16:30,ALTO HOSPICIO,Colisión,"Vehiculo en retroceso, conducir",0,0,0,0,2,URBANO,AV. RICARDO LAGOS ESQUINA LOS LAGOS,,25,,,"ALTO HOSPICIO, AV. RICARDO LAGOS ESQUINA LOS LAGOS, 25",-20.2799441,-70.0829007
07/11/2010,06:30,IQUIQUE,Colisión,Conducción en estado de ebriedad,0,0,0,2,2,URBANO,ARTURO FERNANDEZ,VICENTE ZEGERS,,,,"IQUIQUE, ARTURO FERNANDEZ, VICENTE ZEGERS",-20.2177736,-70.143625
07/11/2010,11:00,IQUIQUE,Volcadura,Conducción no atento condiciones transito momento,0,0,0,1,0,URBANO,GENARO GALLO,THOMPSON,,,,"IQUIQUE, GENARO GALLO, THOMPSON",-20.2157202,-70.135764
08/11/2010,07:35,IQUIQUE,Choque,Conducción no atento condiciones transito momento,0,0,0,2,2,URBANO,SOTOMAYOR,SEXTO ORIENTE,,,,"IQUIQUE, SOTOMAYOR, SEXTO ORIENTE",-20.2111333,-70.1416166
08/11/2010,20:25,ALTO HOSPICIO,Choque,Conducción en estado de ebriedad,0,0,2,0,2,URBANO,AV. LOS AROMOS ESQUINA RAUL ERLICH,,3981,,,"ALTO HOSPICIO, AV. LOS AROMOS ESQUINA RAUL ERLICH, 3981",-20.273488,-70.0931295
09/11/2010,14:00,IQUIQUE,Colisión,"Señalización, desobedecer señal ceda el paso",0,0,0,1,2,URBANO,AVDA. TADEO HAENKE,ISABEL BONGARDT,,,,"IQUIQUE, AVDA. TADEO HAENKE, ISABEL BONGARDT",-20.2307033,-70.1356692
09/11/2010,14:25,ALTO HOSPICIO,Choque,Animales sueltos via publica,0,0,0,0,1,URBANO,AV. RICARDO LAGOS ESQUINA LOS LAGOS,,25,,,"ALTO HOSPICIO, AV. RICARDO LAGOS ESQUINA LOS LAGOS, 25",-20.2799441,-70.0829007
10/11/2010,17:30,IQUIQUE,Colisión,Conducción no atento condiciones transito momento,0,0,0,1,1,URBANO,AVDA. PRAT,VIVAR,,,,"IQUIQUE, AVDA. PRAT, VIVAR",-20.2252901,-70.1495495
10/11/2010,19:30,IQUIQUE,Colisión,No respetar derecho preferente de paso a vehículo,0,0,0,1,0,URBANO,AVDA. DIEGO PORTALES,COQUIMBO,,,,"IQUIQUE, AVDA. DIEGO PORTALES, COQUIMBO",-20.2309297,-70.1323457
11/11/2010,07:00,ALTO HOSPICIO,Choque,Perdida control vehículo,0,0,0,1,0,URBANO,AV. LOS AROMOS,,3986,,,"ALTO HOSPICIO, AV. LOS AROMOS, 3986",-20.2735975,-70.0927981
11/11/2010,12:45,IQUIQUE,Choque,Conducción sin mantener distancia razonable ni prudente,0,0,0,0,1,URBANO,OHIGGINS,VIVAR,,,,"IQUIQUE, OHIGGINS, VIVAR",-20.218536,-70.1488892
12/11/2010,08:00,IQUIQUE,Colisión,"Señalización, desobedecer señal ceda el paso",0,0,0,2,0,URBANO,M. CASTRO RAMOS,AVDA. PEDRO PRADO,,,,"IQUIQUE, M. CASTRO RAMOS, AVDA. PEDRO PRADO",-20.244863,-70.1334046
13/11/2010,17:10,IQUIQUE,Colisión,"Señalización, desobedecer señal ceda el paso",0,0,0,0,2,URBANO,ARTURO FERNANDEZ,LATORRE,,,,"IQUIQUE, ARTURO FERNANDEZ, LATORRE",-20.2170247,-70.1442119
14/11/2010,17:15,IQUIQUE,Colisión,"Señalización, desobedecer señal pare",0,0,0,0,2,URBANO,BARROS ARANA,ESMERALDA,,,,"IQUIQUE, BARROS ARANA, ESMERALDA",-20.2116628,-70.1470863
14/11/2010,20:15,IQUIQUE,Colisión,"Señalización, desobedecer señal pare",0,0,0,6,2,URBANO,ESMERALDA,PATRICIO LYNCH,,,,"IQUIQUE, ESMERALDA, PATRICIO LYNCH",-20.2154369,-70.1513951
14/11/2010,22:00,ALTO HOSPICIO,Colisión,Conducción no atento condiciones transito momento,0,0,0,0,2,URBANO,"AV, JERICO CON PJE. 5",,2290,,,"ALTO HOSPICIO, AV, JERICO CON PJE. 5, 2290",-20.2494259,-70.1008346
16/11/2010,10:20,IQUIQUE,Colisión,"Señalización, desobedecer luz roja de semáforo",0,0,0,0,2,URBANO,TARAPACA,BARROS ARANAS,,,,"IQUIQUE, TARAPACA, BARROS ARANAS",-20.2175833,-70.1474318
16/11/2010,19:05,ALTO HOSPICIO,Atropello,"Peatón, cruza calzada forma sorpresiva o descuidada",0,1,0,0,1,URBANO,GABRIELA MISTRAL,,4307,,,"ALTO HOSPICIO, GABRIELA MISTRAL, 4307",-20.2911048,-70.1072107
16/11/2010,21:30,IQUIQUE,Colisión,"Señalización, desobedecer señal pare",0,0,0,2,2,URBANO,OHIGGINS,OBISPO LABBE,,,,"IQUIQUE, OHIGGINS, OBISPO LABBE",-20.2184392,-70.1503783
16/11/2010,22:30,ALTO HOSPICIO,Colisión,Conducción no atento condiciones transito momento,0,0,0,1,1,URBANO,AV. LOS AROMOS CON CALLE UNO,,2590,,,"ALTO HOSPICIO, AV. LOS AROMOS CON CALLE UNO, 2590",-20.273488,-70.0931295
17/11/2010,07:50,ALTO HOSPICIO,Colisión,"Conducción, cambiar sorpresivamente pista circulación",0,0,0,1,1,URBANO,AV. LOS CONDORES CON R. P. OPAZO,,2790,,,"ALTO HOSPICIO, AV. LOS CONDORES CON R. P. OPAZO, 2790",-20.2686722,-70.1049169
18/11/2010,08:30,IQUIQUE,Colisión,"Señalización, desobedecer señal pare",0,0,0,3,1,URBANO,FCO. VERGARA,AVDA. PLAYA BRAVA,,,,"IQUIQUE, FCO. VERGARA, AVDA. PLAYA BRAVA",-20.2479851,-70.1368551
19/11/2010,16:25,IQUIQUE,Colisión,"Señalización, desobedecer señal ceda el paso",0,0,0,0,2,URBANO,AVDA. LA TIRANA,EL MONTE,,,,"IQUIQUE, AVDA. LA TIRANA, EL MONTE",-20.2543166,-70.1260602
20/11/2010,04:20,ALTO HOSPICIO,Choque,Conducción en estado de ebriedad,0,0,0,0,2,URBANO,LOS AROMOS RUTA A-16,,3961,,,"ALTO HOSPICIO, LOS AROMOS RUTA A-16, 3961",-20.2588937,-70.0732602
20/11/2010,17:45,IQUIQUE,Colisión,"Señalización, desobedecer señal pare",0,0,0,0,2,URBANO,ORELLA,AMUNATEGUI,,,,"IQUIQUE, ORELLA, AMUNATEGUI",-20.2206303,-70.146763
20/11/2010,18:10,POZO ALMONTE,Colisión,Conducción sin mantener distancia razonable ni prudente,0,0,0,0,2,URBANO,COMERCIO,21 DE MAYO,,,,"POZO ALMONTE, COMERCIO, 21 DE MAYO",-20.2570503,-69.7857064
20/11/2010,20:00,IQUIQUE,Choque,"Señalización, desobedecer luz roja de semáforo",0,0,0,1,0,URBANO,AVDA. HEROES DE LA CONCEPCION,CESPEDES GONZALEZ,,,,"IQUIQUE, AVDA. HEROES DE LA CONCEPCION, CESPEDES GONZALEZ",-20.2247382,-70.139754
21/11/2010,13:50,ALTO HOSPICIO,Colisión,Conducción en estado de ebriedad,0,0,0,0,2,URBANO,AV. LOS AROMOS,,3961,,,"ALTO HOSPICIO, AV. LOS AROMOS, 3961",-20.2732375,-70.0933809
21/11/2010,21:45,ALTO HOSPICIO,Choque,Conducción bajo la influencia del alcohol,0,0,0,0,2,URBANO,AV. LA PAMPA,,2839,,,"ALTO HOSPICIO, AV. LA PAMPA, 2839",-20.2725252,-70.1029512
22/11/2010,02:20,IQUIQUE,Colisión,"Señalización, desobedecer señal pare",0,2,0,2,0,URBANO,ARTURO FERNANDEZ,CESPEDES GONZALEZ,,,,"IQUIQUE, ARTURO FERNANDEZ, CESPEDES GONZALEZ",-20.2245126,-70.1445436
22/11/2010,19:10,IQUIQUE,Choque,"Señalización, desobedecer señal ceda el paso",0,0,0,1,1,URBANO,CERRO DRAGON,MAULE,,,,"IQUIQUE, CERRO DRAGON, MAULE",-20.2374931,-70.1298787
23/11/2010,07:40,ALTO HOSPICIO,Colisión,Virajes indebidos,0,0,0,0,2,URBANO,AV. GABRIELA MISTRAL CON CALLE VENEZUELA,,2490,,,"ALTO HOSPICIO, AV. GABRIELA MISTRAL CON CALLE VENEZUELA, 2490",-20.2889864,-70.1061976
23/11/2010,18:50,IQUIQUE,Colisión,"Señalización, desobedecer señal pare",0,0,0,1,1,URBANO,TADEO HAENKE,ISABEL BONGARD,,,,"IQUIQUE, TADEO HAENKE, ISABEL BONGARD",-20.2391223,-70.1414652
23/11/2010,21:30,IQUIQUE,Atropello,"Peatón, cruza calzada forma sorpresiva o descuidada",0,0,0,1,1,URBANO,AVDA. PRAT,STGO. POLANCO,,,,"IQUIQUE, AVDA. PRAT, STGO. POLANCO",-20.2466747,-70.1321136
24/11/2010,11:45,IQUIQUE,Atropello,No respetar derecho preferente de paso a peatón,0,0,0,0,1,URBANO,SERRANO,OBISPO LABBE,,,,"IQUIQUE, SERRANO, OBISPO LABBE",-20.2132565,-70.150245
24/11/2010,14:30,ALTO HOSPICIO,Choque,Conducción sin mantener distancia razonable ni prudente,0,0,0,1,1,URBANO,AV. LOS AROMOS,,1790,,,"ALTO HOSPICIO, AV. LOS AROMOS, 1790",-20.2735743,-70.0934246
25/11/2010,05:45,ALTO HOSPICIO,Choque,Conducción en estado de ebriedad,0,0,0,0,1,URBANO,pje. continental,,13,,,"ALTO HOSPICIO, pje. continental, 13",-20.285163,-70.1043669
25/11/2010,11:30,IQUIQUE,Atropello,"Peatón, cruza calzada forma sorpresiva o descuidada",0,0,0,1,1,URBANO,AVDA. COSTANERA,,4775,,,"IQUIQUE, AVDA. COSTANERA, 4775",-20.2615799,-70.1311497
25/11/2010,19:40,IQUIQUE,Atropello,"Peatón, cruza calzada fuera paso peatones",0,0,0,1,1,URBANO,OSCAR BONILLA,MOISES GONZALEZ,,,,"IQUIQUE, OSCAR BONILLA, MOISES GONZALEZ",-20.2099445,-70.1398778
26/11/2010,09:40,ALTO HOSPICIO,Choque,"Vehiculo en retroceso, conducir",0,0,0,0,2,URBANO,AV. RAMON PEREZ OPAZO CON AV. LA PAMPA,,2490,,,"ALTO HOSPICIO, AV. RAMON PEREZ OPAZO CON AV. LA PAMPA, 2490",-20.2720521,-70.1030057
26/11/2010,10:55,ALTO HOSPICIO,Choque,"Vehiculo en retroceso, conducir",0,0,0,1,1,URBANO,SANTA XIMENA,,1577,,,"ALTO HOSPICIO, SANTA XIMENA, 1577",-20.2783619,-70.0963835
27/11/2010,00:30,IQUIQUE,Colisión,"Señalización, desobedecer señal ceda el paso",0,0,0,3,1,URBANO,AMUNATEGUI,MANUEL BULNES,,,,"IQUIQUE, AMUNATEGUI, MANUEL BULNES",-20.2195518,-70.1467191
27/11/2010,17:30,ALTO HOSPICIO,Colisión,"Peatón, cruza calzada forma sorpresiva o descuidada",0,0,0,1,1,URBANO,TILIVICHE,,3342,,,"ALTO HOSPICIO, TILIVICHE, 3342",-20.2766979,-70.1073803
28/11/2010,03:15,IQUIQUE,Atropello,Conducción en estado de ebriedad,0,0,0,1,1,URBANO,SECTOR BAJO MOLLE,FTE. KAMIKASE,,,,"IQUIQUE, SECTOR BAJO MOLLE, FTE. KAMIKASE",-20.2928084,-70.1200469
28/11/2010,05:50,IQUIQUE,Colisión,Conducción en estado de ebriedad,0,1,0,2,0,URBANO,AVDA. PLAYA BRAVA,PEDRO GAMBONI,,,,"IQUIQUE, AVDA. PLAYA BRAVA, PEDRO GAMBONI",-20.2432281,-70.1385607
28/11/2010,07:00,IQUIQUE,Choque,Conducción en estado de ebriedad,0,0,0,0,1,URBANO,AVDA. FCO. BILBAO,AVDA. LA       TIRANA,,,,"IQUIQUE, AVDA. FCO. BILBAO, AVDA. LA TIRANA",-20.2691828,-70.1257417
28/11/2010,16:15,ALTO HOSPICIO,Colisión,Virajes indebidos,0,0,0,3,1,URBANO,AV. RICARDO LAGOS CON CALLE LOS LAGOS,,2390,,,"ALTO HOSPICIO, AV. RICARDO LAGOS CON CALLE LOS LAGOS, 2390",-20.2805098,-70.0828282
29/11/2010,10:50,IQUIQUE,Colisión,Conducción no atento condiciones transito momento,0,0,0,1,1,URBANO,TOMAS BONILLA,AVDA. H. DE LA CONCEPCION,,,,"IQUIQUE, TOMAS BONILLA, AVDA. H. DE LA CONCEPCION",-20.2307033,-70.1356692
29/11/2010,21:50,IQUIQUE,Choque,"Señalización, desobedecer señal ceda el paso",0,0,0,3,0,URBANO,AVDA. LA TIRANA,PROGRESO,,,,"IQUIQUE, AVDA. LA TIRANA, PROGRESO",-20.2543166,-70.1260602
01/12/2010,23:00,IQUIQUE,Choque,Conducción no atento condiciones transito momento,0,0,0,1,1,URBANO,TADEO HAENCKE,,1200,,,"IQUIQUE, TADEO HAENCKE, 1200",-20.2366234,-70.1454642
02/12/2010,17:40,IQUIQUE,Colisión,Conducción no atento condiciones transito momento,0,0,0,1,2,URBANO,OHIGGINS,ARTURO FERNANDEZ,,,,"IQUIQUE, OHIGGINS, ARTURO FERNANDEZ",-20.2187948,-70.1443066
02/12/2010,19:00,ALTO HOSPICIO,Choque,Conducción sin mantener distancia razonable ni prudente,0,0,0,0,2,URBANO,PAMPA UNION ESQUINA LA PAMPA,,2390,,,"ALTO HOSPICIO, PAMPA UNION ESQUINA LA PAMPA, 2390",-20.2720521,-70.1030057
03/12/2010,15:30,ALTO HOSPICIO,Colisión,Conducción no atento condiciones transito momento,0,0,0,2,1,URBANO,UNION EUROPEA ESQUINA FIRLANDIA,,1140,,,"ALTO HOSPICIO, UNION EUROPEA ESQUINA FIRLANDIA, 1140",-20.2954506,-70.1016712
03/12/2010,17:40,ALTO HOSPICIO,Colisión,Conducción sin mantener distancia razonable ni prudente,0,0,0,1,2,URBANO,LOS ALAMOS ESQUINA ALEX PRIETO,,2050,,,"ALTO HOSPICIO, LOS ALAMOS ESQUINA ALEX PRIETO, 2050",-20.270665,-70.107154
03/12/2010,18:10,IQUIQUE,Atropello,"Peatón, cruza calzada forma sorpresiva o descuidada",0,0,0,1,1,URBANO,INTERIOR RECINTO AMURALLADO,ZOFRI,,,,"IQUIQUE, INTERIOR RECINTO AMURALLADO, ZOFRI",-20.2070696,-70.1358118
04/12/2010,08:00,IQUIQUE,Colisión,"Señalización, desobedecer señal pare",0,0,0,5,0,URBANO,21 DE MAYO,ZEGERS,,,,"IQUIQUE, 21 DE MAYO, ZEGERS",-20.2177736,-70.143625
04/12/2010,11:00,ALTO HOSPICIO,Colisión,"Señalización, desobedecer señal pare",0,0,0,3,1,URBANO,LOS NOGALES ESQUINA LOS DATILES,,895,,,"ALTO HOSPICIO, LOS NOGALES ESQUINA LOS DATILES, 895",-20.2620837,-70.1037992
04/12/2010,11:30,IQUIQUE,Colisión,"Señalización, desobedecer señal pare",0,0,0,2,0,URBANO,ARTURO PEREZ CANTO,CESPEDES GONZALEZ,,,,"IQUIQUE, ARTURO PEREZ CANTO, CESPEDES GONZALEZ",-20.2248356,-70.1380641
06/12/2010,08:20,IQUIQUE,Choque,Conducción no atento condiciones transito momento,0,1,0,0,1,URBANO,AVDA. LA TIRANA,CAMPOS DEPORTES,,,,"IQUIQUE, AVDA. LA TIRANA, CAMPOS DEPORTES",-20.227256,-70.1298393
06/12/2010,10:30,ALTO HOSPICIO,Colisión,"Señalización, desobedecer señal pare",0,0,0,3,0,URBANO,AVDA. LAS AMERICAS ESQUINA AVDA. SANTA MARIA,,850,,,"ALTO HOSPICIO, AVDA. LAS AMERICAS ESQUINA AVDA. SANTA MARIA, 850",-20.2847174,-70.1022289
06/12/2010,14:30,IQUIQUE,Atropello,Conducción no atento condiciones transito momento,0,1,0,0,1,URBANO,AVDA. LA TIRANA,AVDA. RAMON PEREZ OPAZO,,,,"IQUIQUE, AVDA. LA TIRANA, AVDA. RAMON PEREZ OPAZO",-20.2520595,-70.1267483
06/12/2010,19:00,ALTO HOSPICIO,Colisión,No respetar derecho preferente de paso a vehículo,0,0,0,2,2,URBANO,AVDA. 14 ESQUINA AVDA. 15,,560,,,"ALTO HOSPICIO, AVDA. 14 ESQUINA AVDA. 15, 560",-20.2686722,-70.1049169
07/12/2010,14:00,IQUIQUE,Atropello,No respetar derecho preferente de paso a peatón,0,0,0,1,1,URBANO,10 ORIENTE,SOTOMAYOR,,,,"IQUIQUE, 10 ORIENTE, SOTOMAYOR",-20.2170088,-70.1358607
