Direccion,LATITUD,LONGITUD
"IQUIQUE, PEDRO PRADO, ORELLA",-20.2212841,-70.1348904
"IQUIQUE, AV. LA TIRANA, CALLE 6",-20.2307033,-70.1356692
"ALTO HOSPICIO, LOS GUINDALES, LOS AROMOS, 2490",-20.2652492,-70.1055102
"IQUIQUE, JUAN MARTINEZ, SARGENTO ALDEA",-20.2160713,-70.1451094
"PICA, CAMINO PRIVADO MINERA COLLAHUASI, 24",-20.9814192,-68.6379674
"IQUIQUE, THOMPSON, OSCAR BONILLA",-20.2154831,-70.1401029
"IQUIQUE, THOMPSON, VIVAR",-20.2148742,-70.1485661
"IQUIQUE, RAMIREZ, 1270",-20.2202073,-70.1494388
"IQUIQUE, RANCAGUA, CACHARPAYAS",-20.2350388,-70.1325303
"IQUIQUE, RAMIREZ, 1162",-20.2191755,-70.1493946
"IQUIQUE, ERRAZURIS, THOMPSON",-20.2152505,-70.1435156
"ALTO HOSPICIO, TILIVICHE, LOS AVELLANOS, 3290",-20.2725782,-70.1064197
"IQUIQUE, RAMIREZ, GOROSTIAGA",-20.2168749,-70.1494213
"IQUIQUE, 18 DE SEPTIEMBRE, LIBERTAD",-20.2307033,-70.1356692
"ALTO HOSPICIO, AV. LOS ALAMOS CON RAMON PEREZ OPAZO, 2500",-20.2740456,-70.1008643
"IQUIQUE, ARTURO PRAT, AEROPUERTO",-20.244478,-70.1410328
"IQUIQUE, TADEO HAENKE, GENARO GALLO",-20.2394749,-70.1403552
"IQUIQUE, la torre, 21 de mayo",-20.2307033,-70.1356692
"IQUIQUE, OSCAR BONILLA, DIEGO PORTALES",-20.2297964,-70.1422898
"ALTO HOSPICIO, AV. LOS CONODRES CON TARAPACA, 2380",-20.2758634,-70.0977978
"IQUIQUE, OHIGGINS, VIVAR",-20.218536,-70.1488892
"IQUIQUE, AVDA. CHIPANA",-20.2307033,-70.1356692
"IQUIQUE, AVDA. ARTURO PRAT",-20.2484469,-70.1381101
"IQUIQUE, OBISPO LABBE, MANUEL RODRIGUEZ",-20.2233179,-70.1505699
"ALTO HOSPICIO, AV. LOS CONDORES CON LA GRANJA, 3290",-20.2719484,-70.1029629
"ALTO HOSPICIO, AV. LAS AMERICAS CON CARMELA CARVAJAL, 2900",-20.2800542,-70.1007563
"ALTO HOSPICIO, PASAJE SAN FRANCISCO, 4151",-20.278689,-70.0910657
"IQUIQUE, gomez carreño",-20.2333352,-70.1324357
"IQUIQUE, avda. arturo prat",-20.2484469,-70.1381101
"ALTO HOSPICIO, AV. LAS AMERICAS, SANTA MARIA, 2390",-20.2686722,-70.1049169
"IQUIQUE, HEROES DE LA CONCEPCION, CESPEDES Y GONZALEZ",-20.2247382,-70.139754
"ALTO HOSPICIO, LOS MANZANOS CON LOS ALAMOS, 2590",-20.2686722,-70.1049169
"IQUIQUE, TADEO HAENKE, CERRO DRAGON",-20.2386682,-70.1296108
"IQUIQUE, LOS RIELES, ORELLA",-20.2208235,-70.1432206
"IQUIQUE, EMILIO RECABARREN, ARTURO PRAT",-20.23336,-70.14116
"ALTO HOSPICIO, AV. LAS AMERICAS CON PAULA JARAQUEMADA, 2890",-20.2828255,-70.1020691
"ALTO HOSPICIO, AV. LOS ALAMOS CON LOS NOGALES, 3200",-20.2662507,-70.1025442
"IQUIQUE, HEROES DE LA CONCEPCION, DIEGO PORTALES",-20.2300539,-70.1409672
"ALTO HOSPICIO, SANTA ROSA, AV. LA PAMPA, 2900",-20.2718522,-70.1029147
"IQUIQUE, PEDRO PRADO, 2520",-20.2355547,-70.1363476
"IQUIQUE, OHHIGGINS, OBISPO LABBE",-20.2184392,-70.1503783
"IQUIQUE, VIVAR, SARGENTE ALDEA",-20.2159485,-70.1486532
"IQUIQUE, DIEGO PORTALES, AVENIDA  PRAT",-20.2307033,-70.1356692
"IQUIQUE, PROGRESO, 1926",-20.2272577,-70.1321482
"IQUIQUE, 18 dfe septiembre, diego portales",-20.2306665,-70.1371297
"IQUIQUE, FARNCISCO BILBAO, BALMACEDA",-20.2653785,-70.126922
"ALTO HOSPICIO, LOS NOGALES, 3100",-20.2669704,-70.0993167
"PICA, CALLE SIMON BOLIVAR CON PARRACP FREDERICH, 1",,
"IQUIQUE, LIBERTAD, OSCAR BONILLA",-20.2194645,-70.1403842
"IQUIQUE, AV. ARTURO PRAT, DIEGO PORTALES",-20.244478,-70.1410328
"IQUIQUE, FRESIA, 231",-20.2280658,-70.1358063
"POZO ALMONTE, INTERNA QUEBRADA BLANCA, 62",-20.2570503,-69.7857064
"IQUIQUE, TADEO HAENKE, HEROES DE LA CONCEPCION",-20.2379949,-70.1442259
"IQUIQUE, GENARO GALLO, AV. PLAYA BRAVA",-20.2422792,-70.1413978
"IQUIQUE, CESPEDES Y GONZALEZ, AMUNATEGUI",-20.2244134,-70.14698
"ALTO HOSPICIO, AV. COSTANERA, 3234",-20.2686722,-70.1049169
"IQUIQUE, PEDRO PRADO, 2380",-20.2316357,-70.1354618
"POZO ALMONTE, calle peña chica, 256",-20.2654028,-69.7831943
"PICA, camino pintado, 101",,
"IQUIQUE, CIRCUNVALACION, SOTOMAYOR",-20.2111333,-70.1416166
"IQUIQUE, TADEO HAENKE, PEDRO PRADO",-20.2414031,-70.1341858
"IQUIQUE, JUAN GIRAOS, 1649",-20.2414367,-70.1342598
"IQUIQUE, HEROES DE LA CONCEPCION, 2555",-20.2126288,-70.1385179
"IQUIQUE, CIRCUNVALACION, MANZANA 5",-20.230544,-70.129033
"IQUIQUE, MAULE, LAS CARPAS",-20.2374095,-70.1293885
"IQUIQUE, SALVADOR ALLENDE, RAMON PEREZ OPAZO",-20.2542691,-70.1314071
"POZO ALMONTE, comercio con calle cascada, 0",-20.2570503,-69.7857064
"IQUIQUE, LOS MAITENES, ORELLA",-20.2213609,-70.1334644
"IQUIQUE, OBISPO LABBE, RIQUELME",-20.2213589,-70.1504909
"IQUIQUE, 18 DE SEPTIEMBRE, SARGENTO ALDEA",-20.2161654,-70.142953
"IQUIQUE, SOTOMAYOR, AVENIDA PRAT",-20.2111333,-70.1416166
"IQUIQUE, SANTIAGO POLANCO, YABRICOYA",-20.2473355,-70.1356494
"PICA, la banda con las animas, 0",,
"IQUIQUE, 18 DE SEPTIEMBRE, ORELLA",-20.2208235,-70.1432206
"IQUIQUE, ORELLA, BARROS ARANA",-20.2205893,-70.147605
"IQUIQUE, AV. HEROES DE LA CONCEPCION, LATORRE",-20.2265534,-70.1400001
"IQUIQUE, AV. HÉROES DE LA CONCEPCIÓN, ORELLA",-20.2210371,-70.1394955
"IQUIQUE, SOTOMAYOR, 657",-20.2110999,-70.14873
"IQUIQUE, AV. LA TIRANA, PJE. VALLE VERDE",-20.2543166,-70.1260602
"IQUIQUE, RAMIREZ, GOROSTIAGA",-20.2168749,-70.1494213
"IQUIQUE, AV. PEDRO PRADO, 2345",-20.2325421,-70.1359347
"IQUIQUE, GENARO GALLO, LAS ROSAS",-20.2373067,-70.139562
"ALTO HOSPICIO, SALITRERA ROSARIO, 2988",-20.2713462,-70.1020473
"IQUIQUE, AVD. LA TIRANA, 2913",-20.2388841,-70.1288631
"IQUIQUE, MANUEL RODRIGUEZ, 18 DE SEPTIEMBRE",-20.2236,-70.1434542
"IQUIQUE, OSCAR BONILLA, PASAJE 2",-20.2264987,-70.1411131
"IQUIQUE, AVDA. ARTURO PRAT, 4200",-20.2481527,-70.1380287
"IQUIQUE, LAS ZAMPOÑAS, PEDRO DE VALDIVIA",-20.2339293,-70.1340386
"IQUIQUE, AVDA. CERRO DRAGÓN, EL MONTE",-20.2455526,-70.1292691
"IQUIQUE, ESMERALDA, RAMIREZ",-20.2307033,-70.1356692
"IQUIQUE, SANTIAGO POLANCO, AVDA. PLAYA BRAVA",-20.2478923,-70.1368759
"IQUIQUE, AVDA. LA TIRANA, 1582",-20.2241521,-70.1313395
"IQUIQUE, AVDA. FRANCISCO VERGARA, RAMON OPAZO",-20.255036,-70.1327603
"IQUIQUE, AVDA. CASTRI RAMOS, AVDA. CERRO DRAGON",-20.2443662,-70.129305
"ALTO HOSPICIO, AVDA. CIRCUNVALACION CRUCE CON CALLE SAN PABLO, AVDA. CIRCUNVALACION CRUCE CON CALLE SAN PALBO",-20.2686722,-70.1049169
"IQUIQUE, 21 DE MAYO, LATORRE",-20.2307033,-70.1356692
"IQUIQUE, ELIAS LAFERTE, ORELLA",-20.2307033,-70.1356692
"ALTO HOSPICIO, AVDA. LOS ALAMSO CON AVDA. CIRCUNVALACION, AVDA. CIRCUNVALACION CON AVDA. LOS ALAMOS",-20.2722788,-70.1097974
"IQUIQUE, SALITRERA VICTORIA, MAPOCHO",-20.2049542,-70.1369169
"IQUIQUE, BULNES, AMUNÁTEGUI",-20.2195518,-70.1467191
"IQUIQUE, CHINTAGUAY, AVDA. PEDRO PRADO",-20.226475,-70.1352834
"POZO ALMONTE, BALMACEDA, 250",-20.2598135,-69.7865946
"POZO ALMONTE, SANFUENTES, 700",-20.2570503,-69.7857064
"ALTO HOSPICIO, CIRCUNVALACION, LOS GUINDALES, 3290",-20.2620823,-70.1027481
"IQUIQUE, 21 DE MAYO, ORELLA",-20.2208923,-70.1421601
"IQUIQUE, CESPEDES Y GONZÁLEZ, GENARO GALLO",-20.2249004,-70.1370717
"IQUIQUE, ESMERALDA, AMUNATEGUI",-20.2176315,-70.1465983
"IQUIQUE, AVDA. PRAT, JOSÉ MIGUEL CARRERA",-20.2266274,-70.1421023
"IQUIQUE, 12 DE FEBRERO, TARAPACA",-20.2198336,-70.1414293
"ALTO HOSPICIO, HUNATAJAYA CON LOS MANZANOS, 2590",-20.2623469,-70.1047977
"IQUIQUE, AVDA. ARTURO PRAT, 2330",-20.2476674,-70.1383188
"ALTO HOSPICIO, SALITRERA IRIS, CERRO  ESMERALDA, 3290",-20.2721122,-70.1000249
"ALTO HOSPICIO, LAS AMERICAS, SANTA MARIA, 3490",-20.2844871,-70.1018602
"IQUIQUE, BULNES, JUAN MARTINEZ",-20.219616,-70.1454426
"IQUIQUE, AV. CAMPOS DE DEPORTE, BOMBERO JUAN GIRAO",-20.2254732,-70.1318466
"IQUIQUE, BARROS ARANA, SAN MARTIN",-20.2127018,-70.1471204
"IQUIQUE, AV. SANTIAGO POLANCO, AV. PLAYA BRAVA",-20.2478923,-70.1368759
"IQUIQUE, AV. PEDRO PRADO, OHIGGINS",-20.2193218,-70.1347013
"IQUIQUE, AV. PRAT, AV. PLAYA BRAVA",-20.244478,-70.1410328
"IQUIQUE, AV. PRAT, AV. HEROES DE LA CONCEPCION",-20.2409532,-70.1449725
"IQUIQUE, AV. LA TIRANA, AV. LA TIRANA",-20.2543166,-70.1260602
"IQUIQUE, OHIGGINS, AV. HEROES DE LA CONCEPCION",-20.2190716,-70.1393305
"ALTO HOSPICIO, LOS ALOMSO CON LOS ALMENDROS, 2790",-20.2556598,-70.1069637
"IQUIQUE, PEDRO GAMBONI, AV. PEDRO PRADO",-20.2364664,-70.1360525
"POZO ALMONTE, ESTACION, 5",-20.2612535,-69.7846354
"IQUIQUE, ZEGERS, JUAN MARTINESZ",-20.217696,-70.1452689
"IQUIQUE, AV. SANTIAGO POLANCO, AV. ARTURO PRAT",-20.2486089,-70.1382111
"IQUIQUE, LOS ALGARROBOS, 3238",-20.25001,-70.12631
"IQUIQUE, TUCAPEL, 2446",-20.2401532,-70.1339695
"IQUIQUE, AV. PEDRO PRADO, BULNES",-20.2201814,-70.1349026
"ALTO HOSPICIO, SANTA MARIA, AV. LAS AMERICAS, 3490",-20.2844871,-70.1018602
"ALTO HOSPICIO, LORETO PINEDA, 3007",-20.2833296,-70.1039885
"ALTO HOSPICIO, JERUSALEM, 3954",-20.2686722,-70.1049169
"IQUIQUE, CARDENAL JOSE CARDENAL CARO, PJE.  VIA LOCAL",-20.2641213,-70.1252803
"ALTO HOSPICIO, AV. LAS AMERICAS CON CANADA, 31",-20.2686722,-70.1049169
"ALTO HOSPICIO, LOS GUINDALES CON LOS KIWIS, 2590",-20.2638074,-70.1077772
"ALTO HOSPICIO, SANTA ROSA DE HUARA, 25",-20.2720577,-70.0876548
"ALTO HOSPICIO, LOS KIWIS, LOS GUINDALES, 2590",-20.2645654,-70.1048838
"IQUIQUE, BERNARDINO GUERRA, 13 ORIENTE",-20.2296924,-70.134465
"ALTO HOSPICIO, CERRO ESMERALDA, 2976",-20.2721122,-70.1000249
"ALTO HOSPICIO, AV. LOS AROMOS, 2328",-20.2729531,-70.0931598
"IQUIQUE, AV. LA TIRANA, AV. ARTURO PRAT",-20.2543166,-70.1260602
"IQUIQUE, AV. PRAT, 2120",-20.2440011,-70.1407861
"IQUIQUE, JUAN MARTINEZ, ZEGERS",-20.2307033,-70.1356692
"ALTO HOSPICIO, RICARDO LAGOS CON OVALLE, 2450",-20.2788894,-70.082582
"IQUIQUE, AV. LA TIRANA, CASTRO RAMOS",-20.2543166,-70.1260602
"IQUIQUE, ANIBAL PINTO, BULNES",-20.2167578,-70.1528862
"IQUIQUE, CERRO DRAGON, MAULE",-20.2374931,-70.1298787
"ALTO HOSPICIO, AV. LAS AMERICAS CON CARMELA CARVAJAL, 3000",-20.2800542,-70.1007563
"IQUIQUE, AV. PROGRESO, CESPEDES Y GONZALEZ",-20.2251209,-70.1331427
"ALTO HOSPICIO, AV. LAS PARCELAS, 20",-20.2728431,-70.0920644
"IQUIQUE, AV. PEDRO PRADO, ORELLA",-20.2212841,-70.1348904
"ALTO HOSPICIO, LOS DATILES, AV. RAMON PEREZ OPAZO, 2500",-20.2740456,-70.1008643
"IQUIQUE, ZEGERS, AV. HEROES DE LA CONCEPCION",-20.2180007,-70.1392298
"IQUIQUE, ZEGERS, VIVAR",-20.2175284,-70.1487847
"IQUIQUE, JOSE JOAQUIN PEREZ, AVDA. PEDRO PRADO",-20.2229938,-70.135099
"IQUIQUE, ESMERALDA, ERRAZURIZ",-20.2118422,-70.1432225
"IQUIQUE, AMUNATEGUI, CESPEDES Y GONZALEZ",-20.2244134,-70.14698
"IQUIQUE, 18 DE SEPTIEMBRE, SAN MARTIN",-20.2307033,-70.1356692
"IQUIQUE, AVDA. ARTURO PRAT, SOTOMAYOR",-20.2109307,-70.1514957
"ALTO HOSPICIO, ANTOFAGASTA CON PASAJE TALCA, 45",-20.2759861,-70.0810375
"ALTO HOSPICIO, LAS AVELLANAS CON LA NORIA, 2890",-20.268972,-70.1069944
"IQUIQUE, AVDA. ARTURO PRAT, AVDA. CHIPANA",-20.2484469,-70.1381101
"IQUIQUE, AVDA. ARTURO PRAT, AVDA. AEROPUERTO",-20.2307033,-70.1356692
"IQUIQUE, CHANON, ALEJANDRIA",-20.2055919,-70.1335815
"ALTO HOSPICIO, CALLE FINLANDIA, AV. LAS AMERICAS, 45",-20.2960867,-70.1056569
"IQUIQUE, PLAYA BLANCA, RANCAGUA",-20.2307033,-70.1356692
"IQUIQUE, AVDA. LA TIRANA, PRESITENTE EDUARDO FREI MONTALVA",-20.2580681,-70.1253626
"ALTO HOSPICIO, LOS DATILES, LOS ALMENDROS, 3490",-20.2626994,-70.1043555
"IQUIQUE, JUAN MARTINEZ, 464",-20.2134552,-70.1447043
"ALTO HOSPICIO, LOS KIWIS CON LOS TAMARUGOS, 2790",-20.2718192,-70.104678
"IQUIQUE, SARGENTO ALDEA, 10 ORIENTE",-20.2164258,-70.1358155
"IQUIQUE, AVDA. CHIPANA, GUATACONDO",-20.2307033,-70.1356692
"ALTO HOSPICIO, AV. RAMON PEREZ OPAZO, LOS GUINDALES, 3450",-20.2713588,-70.1004005
"IQUIQUE, 21 DE MAYO, HERNAN FUENZALIDAD",-20.2286595,-70.1427026
"IQUIQUE, OHIGGINS, ELEUTERIO RAMIREZ",-20.2184918,-70.1494876
"IQUIQUE, VIVAR, 1214",-20.21975,-70.1487933
"IQUIQUE, TARAPACA, OSCAR BONILLA",-20.2194645,-70.1403842
"POZO ALMONTE, estacion con pampa germania, 0",-20.2613588,-69.7846368
"IQUIQUE, SERRANO, PATRICIO LYNCH",-20.2130592,-70.1513845
"IQUIQUE, OHIGGINS, AV. PEDRO PRADO",-20.2193218,-70.1347013
"IQUIQUE, AV. CERRO DRAGON, 3155",-20.247171,-70.1295565
"IQUIQUE, ZEGERS, AMUNATEGUI",-20.2176315,-70.1465983
"ALTO HOSPICIO, AV. LAS AMERICAS, AV. SANTA MARIA, 3450",-20.2844755,-70.1018559
"IQUIQUE, RUTA A-1, 400",-20.2414367,-70.1342598
"IQUIQUE, 2 ORIENTE, 4 SUR",-20.2742676,-70.1241236
"IQUIQUE, AV. CERRO DRAGON, GOMEZ CARREÑO",-20.2330057,-70.1302175
"ALTO HOSPICIO, AV. LOS AROMOS, LOS GUINDALES, 2690",-20.2661815,-70.1064075
"ALTO HOSPICIO, AV. SANTA MARIA, AV. LAS AMERICAS, 3490",-20.2844871,-70.1018602
"ALTO HOSPICIO, NACIONES UNIDAS CON SAN FERNANDO, 87",-20.2686722,-70.1049169
"IQUIQUE, AVDA. SALVADOR ALLENDE, AV. JOSE MIGUEL CARRERA",-20.2307033,-70.1356692
"IQUIQUE, THOMPSON, 21 DE MAYO",-20.2153669,-70.1418343
"IQUIQUE, JUAN MARTINEZ, LATORRE",-20.2169534,-70.1451921
"ALTO HOSPICIO, PAULA JARAQUEMADA, ADELA ZAMUDIO, 2790",-20.2828209,-70.102083
"IQUIQUE, AV.PEDRO PRADO, AVDA. P.PRADO",-20.2653648,-70.1252091
"IQUIQUE, RAMIREZ, MANUEL  RODRIGUEZ",-20.2233541,-70.1497193
"IQUIQUE, PATRICIO LYNCH, JOSE JOAQUIN PEREZ",-20.2223397,-70.1515796
"IQUIQUE, ANIBAL PINTO, OHIGGINS",-20.2182824,-70.1529419
"IQUIQUE, CAMPOS ORIENTE, AVDA. P. PRADO",-20.2307033,-70.1356692
"IQUIQUE, OBISPO LABBE, RIQUELME",-20.2213589,-70.1504909
"IQUIQUE, DIEGO PORTALES, PJE. VIÑA DEL MAR",-33.0153481,-71.5500276
"ALTO HOSPICIO, AV. LAS AMERICAS CON FINLANDIA, 40",-20.2686722,-70.1049169
"IQUIQUE, TARAPACA, ELEUTERIO RAMIREZ",-20.2184918,-70.1494876
"IQUIQUE, 21 DE MAYO, 1203",-20.2414367,-70.1342598
"PICA, CAMINO PRIVADO MINERA, 94000",48.7884823,2.4567614
"IQUIQUE, AVDA. HERLA CONCEPCIONOES DE",-20.2307033,-70.1356692
"IQUIQUE, LAS ROSAS, GENARO GALLO",-20.2373067,-70.139562
"IQUIQUE, AVDA. LA TIRANA, TADEO HEANKE",-20.2382135,-70.1286667
"IQUIQUE, JUAN MARTINEZ, SERRANO",-20.2193478,-70.1454167
"IQUIQUE, OBISPO LABBE, RIQUELME",-20.2213589,-70.1504909
"IQUIQUE, AVDA. LA TIRANA, RUTA A-16",-20.2543166,-70.1260602
"IQUIQUE, AVDA. CIRCUNVALACION, MAPACHO",-20.2063726,-70.1306179
"IQUIQUE, 12 DE FEBRERO, SERRANO",-20.2307033,-70.1356692
"IQUIQUE, MANUEL CASTRO RAMOS, AVDA. LA TIRANA",-20.2444412,-70.1282904
"ALTO HOSPICIO, AV. LAS AMERICAS, 3458",-20.2844778,-70.1018567
"ALTO HOSPICIO, AV. LAS AMERICAS",-20.2901059,-70.1042119
"IQUIQUE, RANCAGUA, MAULE",-20.2379358,-70.1322064
"ALTO HOSPICIO, AV. LAS AMERICAS, AV. SANTA MARIA, 3290",-20.284429,-70.1018386
"IQUIQUE, Arturo Fernández, 1373",-20.2214059,-70.1445723
"IQUIQUE, PATRICIO LYNCH, SOTOMAYOR",-20.2154369,-70.1513951
"ALTO HOSPICIO, AV. COSTANERA, LOS AVELLANOS, 3290",-20.2686722,-70.1049169
"ALTO HOSPICIO, VERTEDERO MUNICIPAL, 1",-20.2686722,-70.1049169
"IQUIQUE, 18 DE SEPTIEMBRE, SARGENTO ALDEA",-20.2161654,-70.142953
"IQUIQUE, AMUNATEGUI, SARGENTO ALDEA",-20.2160359,-70.1465023
"IQUIQUE, 18 DE SEPTIEMBRE, SAN MARTIN",-20.2307033,-70.1356692
"ALTO HOSPICIO, AV. LA PAMPA, LOS ALMENDROS, 3290",-20.2725893,-70.1031146
"ALTO HOSPICIO, AV. LA PAMPA, LOS CONDORES, 2990",-20.2708793,-70.1025426
"IQUIQUE, BARROS ARANA, OSCAR TOMAS BONILLA",-20.2276758,-70.1407143
"IQUIQUE, AVDA. PEDRO PRADO, JOSE MIGUEL CARRERA",-20.2269962,-70.1354064
"IQUIQUE, vivar, 458",-20.2131898,-70.1484076
"IQUIQUE, PORVENIR, AV. CIRCUNVALACIÓN",-20.2063726,-70.1306179
"IQUIQUE, CAMPO DE DEPORTE, MARGARITA NARANJO",-20.225863,-70.1315828
"IQUIQUE, SOTOMAYOR, PATRICIO LYNCH",-20.2109436,-70.151012
"IQUIQUE, AVDA. CHIPANA, PJE. QUINTERO",-32.7728122,-71.5335554
"IQUIQUE, CASTRO RAMOS, AVDA. CERRO DRAGÓN",-20.2443662,-70.129305
"ALTO HOSPICIO, AV. CIRCUNVALACION, 3479",-20.2793907,-70.1066175
"IQUIQUE, AVDA. PADRE HURTADO, AV. ARTURO PRAT",-20.2625059,-70.130789
"ALTO HOSPICIO, CIRCUNVALACION CON SAN DONATO, 2990",-20.2796397,-70.1056167
"IQUIQUE, CESPEDES GONZALEZ, JUAN MARTINEZ",-20.2244564,-70.145933
"IQUIQUE, ESTACIONAMIENTO SUPER, LIDER IQUIQUE, AVDA. HEROES DE LA CONCEPCION",-20.235014,-70.1435904
"IQUIQUE, AVDA. ARTURO PRAT, VIVAR",-20.2255093,-70.1494647
"IQUIQUE, VIVAR, ESMERALDA",-20.2115901,-70.1484112
"IQUIQUE, AMUNATEGUI, LATORRE",-20.2168169,-70.1465983
"IQUIQUE, AV LA TIRANA, CALLE TRES",-20.2561589,-70.1256228
"IQUIQUE, JUAN MARTINEZ, JOSE JOAQUIN PEREZ",-20.2225558,-70.1457281
"ALTO HOSPICIO, CERRO ESMERALDA, PAMPA PERDIZ, 3490",-20.2721122,-70.1000249
"IQUIQUE, TARAPACA, BARROS ARANA",-20.2175833,-70.1474318
"IQUIQUE, SGTO. ALSEA, AMUNATEGUI",-20.2176315,-70.1465983
"IQUIQUE, AVDA. ARTURO PRAT, GOROSTIAGA",-20.2141572,-70.1548644
"ALTO HOSPICIO, CHACA, LOS ALMENDROS, 3490",-20.2693033,-70.1020421
"IQUIQUE, RAMIREZ, LATORRE",-20.2160808,-70.1493656
"ALTO HOSPICIO, LOS NOGALES, LOS DATILES, 2890",-20.2622284,-70.1034031
"IQUIQUE, AVDA. CIRCUNVALACION, ROTONDA EL PAMPINO",-20.2208561,-70.1319844
"IQUIQUE, AVDA. SALVADOR ALLENDE, AVDA. CERRO DRAGON",-20.2564933,-70.1277582
"IQUIQUE, HERNAN FUENZALIDA, AVDA. SALVADOR ALLENDE",-20.2290311,-70.135502
"IQUIQUE, OBISPO LABBE, SIMON BOLIVAR",-20.2122091,-70.1502238
"IQUIQUE, MANUEL CASTRO RAMOS, CERRO DRAGON",-20.2443662,-70.129305
"ALTO HOSPICIO, LAS AVELLANAS, TILIVICHI, 2990",-20.2694445,-70.108895
"IQUIQUE, TOMAS BONILLA, COLO-COLO",-20.2278346,-70.136846
"POZO ALMONTE, comercio con estacion, 0",-20.2570503,-69.7857064
"IQUIQUE, GENARO GALLO, MANUEL BULNES",-20.2201278,-70.1361812
"IQUIQUE, AVDA. PRAT, PLAYA BRAVA",-20.2464111,-70.1403293
"IQUIQUE, PASAJE NRO. 05, INTERIOR TERMINAL AGOPECUARIO",-20.2307033,-70.1356692
"ALTO HOSPICIO, AV. PAMPA PERDIZ ESQUINA LOS NOGALES, 2590",-20.2708507,-70.0986937
"IQUIQUE, PEDRO PRADO, MANUEL RODRIGUEZ",-20.2239461,-70.1351704
"ALTO HOSPICIO, ESMERALDA, LOS GUINDALES, 2790",-20.2645654,-70.1048838
"ALTO HOSPICIO, LOS TAMARUGOS, LOS CONDORES, 2690",-20.2718192,-70.104678
"POZO ALMONTE, 21 DE MAYO CON PAMPA GERMANIA, 0",-20.2613588,-69.7846368
"IQUIQUE, AVDA.  ARTURO PRAT, SALITERA  VICTORIA",-20.2048548,-70.1419282
"IQUIQUE, VIVAR, OHIGGINS",-20.218536,-70.1488892
"IQUIQUE, ORELLA, ARTURO FERNANDEZ",-20.2207652,-70.1443587
"IQUIQUE, ESTACIONAMIENTOS, MALL ZOFRI",-20.2319612,-70.1421087
"IQUIQUE, LATORRE, 21 DE MAYO",-20.2170705,-70.1435776
"IQUIQUE, AVDA. PLAYA BRAVA, SANTIAGO POLANCO",-20.2478923,-70.1368759
"IQUIQUE, AVDA. PEDRO PRADO, ELIAS LAFFERTE",-20.2225972,-70.1350708
"IQUIQUE, AVDA. PEDRO PRADO, AVDA. CHIPANA",-20.2396655,-70.1345536
"IQUIQUE, COLON, INTERIOR RECINTOS AMURALLADOS",-20.2307033,-70.1356692
"IQUIQUE, AVDA. LA TIRANA, CASTRO RAMOS",-20.2444412,-70.1282904
"ALTO HOSPICIO, AV. LOS ALAMOS CON TILIVICHI, 2790",-20.269035,-70.1092389
"IQUIQUE, AVDA. P. PRADO, MANUEL CASTRO RAMOS",-20.244863,-70.1334046
"IQUIQUE, JUAN MARTINEZ, LATORRE",-20.2169534,-70.1451921
"ALTO HOSPICIO, AV. LOS ARMOS CON SANTA MARTA, 3690",-20.2686722,-70.1049169
"IQUIQUE, FRANCISCO VERGARA, ANKIEL NIELSEN",-20.2487975,-70.1346724
"IQUIQUE, AMUNATEGUI, RIQUELME",-20.2216013,-70.146812
"ALTO HOSPICIO, AV. LOS AROMOS X LOS DALITES, 2190",-20.2621685,-70.1042093
"IQUIQUE, PRESIDENTE ERRAZURIZ, 1366",-20.2212795,-70.1438041
"IQUIQUE, AVDA. LA TIRANA, CALLE CUATRO",-20.2543166,-70.1260602
"IQUIQUE, 18  DE SEPTIEMBRE, LIBERTAD",-20.2307033,-70.1356692
"IQUIQUE, AVDA. PRAT, AVDA. AEROPUERTO",-20.2307033,-70.1356692
"IQUIQUE, AVDA. HEROES DE LA CONCEPCION, DIEGO PORTALES",-20.2301432,-70.1411798
"IQUIQUE, DIAGONAL FRANCISCO BILBAO, 4150",-20.267364,-70.1254558
"IQUIQUE, ZEGERS, BARROSARANA",-20.2175833,-70.1474318
"IQUIQUE, LOS MOREÑOS, 2630",-20.2348134,-70.1313362
"IQUIQUE, ESMERALDA, AMUNATEGUI",-20.2176315,-70.1465983
"ALTO HOSPICIO, CALLE 9 CON PASAJE 31, 31",-20.2686722,-70.1049169
"IQUIQUE, HAMBURGO, HONG-KONG",-20.207074,-70.1312176
"ALTO HOSPICIO, TILIVICHI, SANTA ROSA, 2790",-20.2729113,-70.1073613
"ALTO HOSPICIO, RAMON PEREZ OPAZO, 2755",-20.2740456,-70.1008643
"IQUIQUE, PLAYA BRAVA, PEDRO GONZALEZ",-20.2427402,-70.1399698
"ALTO HOSPICIO, LOS AROMOS, 3970",-20.2559988,-70.1060403
"ALTO HOSPICIO, MANZANA 31, 31",-20.2686722,-70.1049169
"IQUIQUE, AVDA. PEDRO PRADO, SANTIAGO POLANCO",-20.2468369,-70.1329274
"IQUIQUE, ARTURO FERNANDEZ, SGTO. ALDEA",-20.2161264,-70.1441618
"IQUIQUE, MANUEL BULNES, ARTURO FERNANDEZ",-20.2196748,-70.1443406
"ALTO HOSPICIO, RICARDO LAGOS CON LOS AROMOS, 3990",-20.2686722,-70.1049169
"IQUIQUE, AVDA. H. DE LA CONCEPCION, TOMAS BONILLA",-20.2307033,-70.1356692
"IQUIQUE, AVDA. PEDRO PRADO, SANTIAGO POLANCO",-20.2468369,-70.1329274
"IQUIQUE, ORELLA, AMUNATEGUI",-20.2206303,-70.146763
"IQUIQUE, LATORRE, 18 DE SEPTIEMBRE",-20.2171182,-70.1429854
"ALTO HOSPICIO, AV. LAS AMERICAS CON CALLE ITALIA, 3590",-20.2845161,-70.1018709
"IQUIQUE, HECTOR DAVILA, 2807",-20.2351957,-70.135679
"ALTO HOSPICIO, AV. SANTA ROSA ESQUINA LA PAMPA, 2590",-37.8956594,-65.0957792
"IQUIQUE, AVDA. H. DE LA CONCEPCION, RIQUELME",-20.2307033,-70.1356692
"IQUIQUE, AVDA. LA TIRANA, avda. fco. bilbao",-20.2691828,-70.1257417
"IQUIQUE, AVDA. A. PRAT, AMUNATEGUI",-20.2067534,-70.1452669
"IQUIQUE, ORELLA, PATRICIO LYNCH",-20.2203193,-70.1515539
"ALTO HOSPICIO, AV. SANTA MARIA, AV. LAS AMERICAS, 2390",-20.2840073,-70.1042721
"IQUIQUE, CASTRO RAMOS, AVDA. LA TIRANA",-20.2444412,-70.1282904
"ALTO HOSPICIO, CIRCUNVALACION, 3250",-20.2686722,-70.1049169
"IQUIQUE, CESPEDES GONZALEZ, ARTURO FERNANDEZ",-20.2245126,-70.1445436
"ALTO HOSPICIO, AV. LOS CONDORES X EL SALITRE, 2390",-20.2719484,-70.1029629
"IQUIQUE, SAN MARTIN, E. RAMIREZ",-20.2307033,-70.1356692
"IQUIQUE, AVDA. CERRO DRAGON, CASTRO RAMOS",-20.2443662,-70.129305
"IQUIQUE, PADRE HURTADO, CERRO DRAGON",-20.2603655,-70.1270142
"IQUIQUE, 18 DE SEPTIEMBRE, ORELLA",-20.2208235,-70.1432206
"IQUIQUE, INTERIOR SERVICENTRO COPEC, AVDA. A. PRAT NRO. 1732",-20.2307033,-70.1356692
"ALTO HOSPICIO, LOS GUINDALES CON AV. LOS AROMOS, 2790",-20.2729531,-70.0931598
"IQUIQUE, ZEGERS, AVDA. PEDRO PRADO",-20.2182167,-70.1347514
"IQUIQUE, SOLDADO PEDRO PRADO, DIEGO PORTALES",-20.2307248,-70.1356851
"IQUIQUE, AVDA. LA TIRANA, CASTRO RAMOS",-20.2444412,-70.1282904
"IQUIQUE, AVDA. A. PRAT, AVDA. H. DE LA CONCEPCION",-20.2484469,-70.1381101
"ALTO HOSPICIO, AV. LOS AROMOS, 3720",-20.2729531,-70.0931598
"IQUIQUE, RIQUELME, AMUNATEGUI",-20.2176315,-70.1465983
"ALTO HOSPICIO, GABRIELA MISTRAL, 4020",-20.2820561,-70.1035353
"ALTO HOSPICIO, AV. LOS AROMOS CON RAUL ERLICH, 3790",-20.273488,-70.0931295
"IQUIQUE, ZEGERS, 21 DE MAYO",-20.2178506,-70.1419968
"IQUIQUE, TARAPACA, PATRICIO  LYNCH",-20.2154369,-70.1513951
"IQUIQUE, AVDA. H. DE LA CONCEPCION, LAS ROZAS",-20.2307033,-70.1356692
"IQUIQUE, JUAN MARTINEZ, BULNES",-20.2193059,-70.1455148
"ALTO HOSPICIO, SANTA ROSA, CALLE DOS, 2590",-20.2729752,-70.1087157
"IQUIQUE, AVDA. PRAT, DIEGO PORTALES",-20.2307033,-70.1356692
"IQUIQUE, AVDA. LA TIRANA, CALLE UNO",-20.2543166,-70.1260602
"IQUIQUE, TOCOPILLA, 3003",-22.0811717,-70.1910636
"IQUIQUE, MANUEL BULNES, AVDA. PEDRO PRADO",-20.2201814,-70.1349026
"IQUIQUE, LATORRE, ARTURO PEREZ CANTO",-20.2175256,-70.1371063
"ALTO HOSPICIO, LOS AROMOS, LAS PARCELAS, 3269",-20.2539593,-70.1060669
"IQUIQUE, prat, 2108",-20.21265,-70.1401344
"IQUIQUE, ESMERALDA, PATRICIO LYNCH",-20.2154369,-70.1513951
"HUARA, JOSE MIGUEL CARRERA, ELEUTERIO RAMIREZ",-19.9959408,-69.7712298
"IQUIQUE, AVDA. ARTURO PRAT, AVDA. P. HURTADO",-20.2625059,-70.130789
"IQUIQUE, RUTA LA SAL 61B001, KLM 750",-20.2307033,-70.1356692
"IQUIQUE, PEDRO GAMBONI, AVDA. SALVADOR ALLENDE",-20.2364664,-70.1360525
"IQUIQUE, AVDA. LA TIRANA, AVDA. CHIPANA",-20.2518219,-70.1260999
"IQUIQUE, AVDA. LA TIRANA, CAMPOS DEPORTES",-20.227256,-70.1298393
"IQUIQUE, COLO-COLO, BERNARDINO GUERRA",-20.2296258,-70.1370293
"IQUIQUE, DIEGO PORTALES, AVDA. ARTURO PRAT",-20.244478,-70.1410328
"IQUIQUE, LAS CABRAS, PUERTA NRO 12 ZOFRI",-20.20843,-70.14043
"ALTO HOSPICIO, LOS NOGALES, 3221",-20.2690265,-70.0982395
"IQUIQUE, PATRICIO LYNCH, PLAYA CHIPANA",-20.2154369,-70.1513951
"ALTO HOSPICIO, PARCELAS, 16",-20.2671328,-70.0874421
"IQUIQUE, ROTONDA EL PAMPINO, RUTA A-16",-20.2585155,-70.0726409
"IQUIQUE, GENARO GALLO, LAS MARGARITAS",-20.2350493,-70.138558
"IQUIQUE, wilson, anibal pinto",-20.2167578,-70.1528862
"ALTO HOSPICIO, AV. LA PAMPA, AV. RAMON PEREZ OPAZO, 2900",-20.2718522,-70.1029147
"IQUIQUE, BARROS ARANA, TARAPACA",-20.2175833,-70.1474318
"IQUIQUE, BUGAMBILIAS, LOS GLADIOLOS",-20.2330879,-70.1389157
"IQUIQUE, ZEGERS, 21 DE MAYO",-20.2178506,-70.1419968
"IQUIQUE, LOSE MIGUEL CARRERA, 21 DE MAYO",-20.226596,-70.1425683
"IQUIQUE, ARTURO FERNANDEZ, SGTO. ALDEA",-20.2161264,-70.1441618
"ALTO HOSPICIO, TILIVICHE, 2725",-20.2690108,-70.1094165
"IQUIQUE, ORELLA, AMUNATEGUI",-20.2206303,-70.146763
"IQUIQUE, ROTONDA EL PAMPINO, MANUEL RODRIGUEZ",-20.2236,-70.1434542
"ALTO HOSPICIO, CALLE 09 CON PJE. 36, 15",-20.2686722,-70.1049169
"IQUIQUE, TADEO HAENKE, errazuriz sur",-20.2307033,-70.1356692
"IQUIQUE, SERRANO, OSCAR BONILLA",-20.2141207,-70.1399322
"IQUIQUE, colon, 2556",-20.2414367,-70.1342598
"IQUIQUE, INTERIOR TERMINAL AGRO, PUERTA ORIENTE",-20.2307033,-70.1356692
"ALTO HOSPICIO, AV. LAS AMERICAS, 3800",-20.284577,-70.1018936
"IQUIQUE, ORELLA, ARTURO FERNANDEZ",-20.2207652,-70.1443587
"ALTO HOSPICIO, SANTA ROSA DE MOLLE, 2",-20.2688621,-70.0900947
"IQUIQUE, HEROES DE LA CONCEPCION, TOMAS BONILLA",-20.2276843,-70.1402925
"ALTO HOSPICIO, AV. LAS AMERICAS, 2580",-20.284223,-70.1017622
"ALTO HOSPICIO, AV. LAS AMERICAS CON AV. SANTA MARIA, 3290",-20.284429,-70.1018386
"ALTO HOSPICIO, AV. LAS AMERICAS, 2680",-20.2842521,-70.101773
"IQUIQUE, AVDA. D. PORTALES, DIEGO PORTALES",-20.2307105,-70.1371321
"ALTO HOSPICIO, AV. SANTA MARIA, 4083",-20.2843451,-70.103453
"IQUIQUE, AVDA. PRAT, FTE. CASINO DE JUEGO",-20.2307033,-70.1356692
"ALTO HOSPICIO, LOS AROMOS CON LOS GUINDALES, 3790",-20.2620823,-70.1027481
"IQUIQUE, AVDA. A. PRATT, SANTIAGO POLANCO",-20.2466747,-70.1321136
"IQUIQUE, LUIS CRUZ MARTINEZ, VICENTE ZEGERS",-20.2180367,-70.1385098
"IQUIQUE, MOISES GONZALEZ, AVDA. HEROES DE LA CONCEPCION",-20.2103074,-70.1384064
"IQUIQUE, LIBERTAD, OSCAR BONILLA",-20.2194645,-70.1403842
"ALTO HOSPICIO, TILIVICHI, 3033",-20.2699325,-70.1087812
"IQUIQUE, GOMEZ CARREÑO, ALMIRANTE MERINO",-20.2333352,-70.1324357
"ALTO HOSPICIO, AV. LOS ALAMOS CON LOS NOGALES, 2790",-20.2662507,-70.1025442
"ALTO HOSPICIO, AV. LOS ALAMOS CON LOS NARANJOS, 3290",-20.2686722,-70.1049169
"ALTO HOSPICIO, AV. LOS AROMOS, 3990",-20.2736208,-70.0927863
"IQUIQUE, AVDA. CAMPOS DEPORTES, JUAN GUIREAUX",-20.2307033,-70.1356692
"IQUIQUE, ARTURO PEREZ CANTO, HERNAN FUENZALIDA",-20.2288673,-70.1384204
"IQUIQUE, AVDA. PLAYA BRAVA, SECTOR DE LOS JUEGOS",-20.2479851,-70.1368551
"IQUIQUE, AVDA LA TIRANA, TADEO HAENKE",-20.2382135,-70.1286667
"IQUIQUE, CESPEDES GONZALEZ, VIVAR",-20.2243074,-70.149329
"IQUIQUE, AVDA. HEROES DE LA CONCEPCION, RIQUELME",-20.2265534,-70.1400001
"IQUIQUE, AVDA. HEROES DE LA CONCEPCION, CESPEDES GONZALEZ",-20.2247382,-70.139754
"IQUIQUE, ZEGERS, FCO. ERRAZURIZ",-20.2307033,-70.1356692
"IQUIQUE, CALLE 5, AVDA. LA TIRANA",-20.2890618,-70.1259748
"ALTO HOSPICIO, AV. LOS AROMOS CON CALLE LOS NARANJOS, 2390",-20.2686722,-70.1049169
"IQUIQUE, SOLDADO PEDRO PRADO, AVDA. RAMON PEREZ OPAZO",-20.2542691,-70.1314071
"IQUIQUE, PILOTO PARDO, AVDA. HEROES DE LA CONCEPCION",-20.2133583,-70.1388275
"IQUIQUE, AVDA. H. DE LA CONCEPCION, THOMPSON",-20.2307033,-70.1356692
"IQUIQUE, AVDA. FCO BILBAO, AVDA. PADRE HURTADO",-20.2616614,-70.129137
"IQUIQUE, SGTO. ALDEA, AVDA. HEROES DE LA CONCEPCION",-20.2163207,-70.1391357
"IQUIQUE, AVDA. P. PRADO, MANUEL BULNES",-20.2201814,-70.1349026
"ALTO HOSPICIO, LOS GUINDALES, CERRO ESMERALDA, 2790",-20.2721122,-70.1000249
"ALTO HOSPICIO, AV. LAS AMERICAS, 65",-20.2936671,-70.105551
"IQUIQUE, CALLE 5, COLEGIO HISPANO BRITANICO",-20.2651579,-70.1255736
"IQUIQUE, LAS ROZAS, GENARO GALLO",-20.2374219,-70.1391931
"ALTO HOSPICIO, AV. LA PAMPA, AV. LOS CONDORES, 3280",-20.2709877,-70.1064781
"ALTO HOSPICIO, AV. LOS AROMOS CON AV. LOS ALAMOS, 3290",-20.2686722,-70.1049169
"IQUIQUE, AVDA. DIEGO PORTALES, 21 DE MAYO",-20.2296416,-70.1427763
"IQUIQUE, MAITENES, ORELLA",-20.2213609,-70.1334644
"IQUIQUE, AVDA. H. DE LA CONCEPCION, MANUEL BULNES",-20.2197049,-70.1437707
"IQUIQUE, AVDA. CHIPANA, CERRO DRAGON",-20.2455526,-70.1292691
"IQUIQUE, GENARO GALLO, AVDA. TADEO HEANKE",-20.2394749,-70.1403552
"IQUIQUE, DIEGO PORTALES, LINCOYAN",-20.2306178,-70.1381075
"IQUIQUE, GOROSTIAGA, OBISPO LABBE",-20.2164075,-70.1503176
"ALTO HOSPICIO, AV. LA PAMPA CON LOS CONDORES, 2790",-20.2660373,-70.1087388
"IQUIQUE, ARTURO FERNANDEZ, CESPEDES GONZALEZ",-20.2245126,-70.1445436
"IQUIQUE, OHIGGINS, ESTACIONAMIENTO CLUB NORTE AMERICA",-20.2183828,-70.1540098
"IQUIQUE, OBISPO LABBE, ORELLA",-20.2203861,-70.1504462
"ALTO HOSPICIO, AV. PAMPA UNION, 3360",-20.2746792,-70.1074268
"IQUIQUE, AVDA. PRAT, RAMIREZ",-20.2307033,-70.1356692
"IQUIQUE, TADEO HAENKE, RANCAGUA",-20.2402494,-70.131756
"IQUIQUE, LOS GLADIOLOS, GENARO GALLO",-20.2334817,-70.1379182
"ALTO HOSPICIO, AV. SANTA MARIA CON ALFONSINA STORNI, 3270",-20.2829784,-70.097833
"IQUIQUE, AVDA. LA TIRANA, EL MONTE",-20.2543166,-70.1260602
"ALTO HOSPICIO, LOS PEPINOS ESQUINA LOS TUMBOS, 3900",-20.2669813,-70.1037804
"IQUIQUE, MAULE, RANCAGUA",-20.2307033,-70.1356692
"ALTO HOSPICIO, AV. LOS ALAMOS CON AV. LOS AROMOS, 3590",-20.2662507,-70.1025442
"IQUIQUE, AVDA. LA TIRANA, CASTRO RAMOS",-20.2444412,-70.1282904
"ALTO HOSPICIO, AV. CIRCUNVALACION CON CALLE 4, 2790",-16.5285377,-68.1966804
"IQUIQUE, AVDA. PRAT, 1670",-20.2476674,-70.1383188
"IQUIQUE, RANCAGUA, CASTRO RAMOS",-20.2445158,-70.131685
"ALTO HOSPICIO, AV. LOS ALAMOS, LOS ALMENDROS, 3190",-20.2662507,-70.1025442
"IQUIQUE, JUAN MARTINEZ, VICENTE SEGERS",-20.2307033,-70.1356692
"IQUIQUE, THOMPSON, ARTURO FERNANDEZ",-20.2152276,-70.1441196
"ALTO HOSPICIO, AV. LOS AROMOS CON PJE. SAN FRANCISCO, 3290",-20.2686722,-70.1049169
"IQUIQUE, HERNAN FUENZALIDA, ARTURO FERNANDEZ",-20.2285882,-70.144682
"PICA, CARLOS CONDELL ESQUINA GENERAL IBAÑEZ, 0",,
"IQUIQUE, AVDA. AEROPUERTO, TADEO HAENKE",-20.2307033,-70.1356692
"IQUIQUE, 21 DE MAYO, ZEGERS",-20.2177736,-70.143625
"IQUIQUE, AVDA. LA TIRANA, CASTRO RAMOS",-20.2444412,-70.1282904
"IQUIQUE, AVDA. LA TIRANA, CASTRO RAMOS",-20.2444412,-70.1282904
"IQUIQUE, PLAYA BRAVA, SALVADOR ALLENDE",-20.2479851,-70.1368551
"IQUIQUE, RUTA A-1, 373",-20.2414367,-70.1342598
"ALTO HOSPICIO, CANAAN, CALLE 3, 2358",-20.2950814,-70.108127
"ALTO HOSPICIO, LOS ALMENDROS, AV. LOS ALAMOS, 2990",-20.2658564,-70.1022579
"POZO ALMONTE, SANTA ROSA, 0",-20.2570503,-69.7857064
"IQUIQUE, JOSE JOAQUIN PEREZ, AVDA. H. DE LA CONCEPCION",-20.2227166,-70.1417354
"IQUIQUE, PATRICIO LYNCH, TARAPACA",-20.2154369,-70.1513951
"ALTO HOSPICIO, CALLE 9, CALLE 3, 1590",-20.2946122,-70.1095485
"ALTO HOSPICIO, AV. PAMPA UNION, AV. LA PAMPA, 3400",-20.2734606,-70.1053405
"IQUIQUE, JUAN MARTINEZ, SAN MARTIN",-20.2128199,-70.1448148
"POZO ALMONTE, la noria sta ana, 0",-20.2570503,-69.7857064
"ALTO HOSPICIO, CALLE EL MIRADOR, 3648",-20.2739184,-70.1034356
"IQUIQUE, INTERIOR RECINTO ZOFRI, MANZANA 09 GALPON 62",-20.206958,-70.1404458
"IQUIQUE, AVDA. CASTRO RAMOS, FCO. VERGARA",-20.2451662,-70.1355174
"IQUIQUE, LAS MARGARITAS, GENARO GALLO",-20.2350493,-70.138558
"IQUIQUE, AVDA. LA TIRANA, DIEGO PORTALES",-20.2309225,-70.1284733
"IQUIQUE, AVDA. ARTURO PRAT, SANTIAGO POLANCO",-20.2484469,-70.1381101
"ALTO HOSPICIO, PASAJE GUINEA, 1",-20.2870418,-70.1028973
"IQUIQUE, ZEGERS, ARTURO FERNANDEZ",-20.2177479,-70.1442373
"ALTO HOSPICIO, AVENIDA 14, JERICO, 2390",-20.2686722,-70.1049169
"IQUIQUE, SGTO. ALDEA, AVDA. HEROES DE LA CONCEPCION",-20.2163207,-70.1391357
"ALTO HOSPICIO, AV. LOS ALAMOS, 2377",-20.2725208,-70.1091116
"ALTO HOSPICIO, LOS ALMENDROS, PJE. CHACA, 2980",-20.2665891,-70.1018295
"ALTO HOSPICIO, AV. LOS ALAMOS, LOS NARANJOS, 2790",-20.2655426,-70.1015785
"IQUIQUE, BARROS ARANA, MANUEL RODRIGUEZ",-20.2234394,-70.1477687
"IQUIQUE, SOLDADO P. PRADO, LOS GLADIOLOS",-20.2337606,-70.1362908
"ALTO HOSPICIO, LOS NOGALES, 2455",-20.2619916,-70.1040999
"ALTO HOSPICIO, AV. RAMON PEREZ OPAZO, CALLE SANTA ROSA, 3290",-20.2701972,-70.1009113
"IQUIQUE, MANUEL BULNES, PEDRO PRADO",-20.2201814,-70.1349026
"ALTO HOSPICIO, CALLE TRES, CALLE NUEVE, 3450",-20.2982649,-70.1097403
"IQUIQUE, HERNAN FUENZALIDA, CASTRO RAMOS",-20.2307033,-70.1356692
"ALTO HOSPICIO, AV. LA PAMPA, 3649",-20.2785384,-70.1032003
"IQUIQUE, DIAGONAL FCO. BILBAO, 3860",-20.264996,-70.1269482
"POZO ALMONTE, buen retiro con pampa germania, 0",-20.2613588,-69.7846368
"IQUIQUE, AVDA. LA TIRANA, CASTRO RAMOS",-20.2444412,-70.1282904
"IQUIQUE, AVDA. LOS HEROES DE LA CONCEPCION, TARAPACA",-20.2111906,-70.1384119
"ALTO HOSPICIO, AV. LA PAMPA, AV. LAS AMERICAS, 3290",-20.2725893,-70.1031146
"IQUIQUE, ESMERALDA, BARROS ARANA",-20.2116628,-70.1470863
"IQUIQUE, AVDA. FCO BILBAO, CALLE 01",-20.2307033,-70.1356692
"ALTO HOSPICIO, AV. LAS AMERICAS, 2745",-20.2809565,-70.1010545
"ALTO HOSPICIO, CALLE ALTO MOLLE CON PJE. MARIA ENCARNACION, 3670",-20.2770148,-70.1020269
"ALTO HOSPICIO, AVENIDA LOS LAGOS, CALLE LA SERENA, 2690",-20.2805098,-70.0828282
"IQUIQUE, LAS GAVIOTAS, AVDA. A. PRAT",-20.2307033,-70.1356692
"ALTO HOSPICIO, PJE. SANTA EMA CON PJE. SANTA ANGELA, 2390",-20.2773271,-70.0954112
"IQUIQUE, DIEGO PORTALES, 12 ORIENTE",-20.2307033,-70.1356692
"IQUIQUE, 21 DE MAYO, ORELLA",-20.2208923,-70.1421601
"ALTO HOSPICIO, LOS AROMOS, RICARDO LAGOS",-20.2686722,-70.1049169
"IQUIQUE, ORELLA, ARTURO FERNANDEZ",-20.2207652,-70.1443587
"IQUIQUE, GOMEZ CARREÑO, CERRO DRAGON",-20.2330057,-70.1302175
"ALTO HOSPICIO, AV. CIRCUNVALACION",-20.2853229,-70.1048561
"IQUIQUE, AVDA. L. BERNARDO OHIGGINS, AVDA. H. DE LA CONCEPCION",-20.2188278,-70.1436951
"IQUIQUE, CESPEDES GONZALEZ, 18 DE SEPTIEMBRE",-20.2245658,-70.1435295
"ALTO HOSPICIO, AV. LOS ALAMOS CON LOS MANZANOS, 3290",-20.2703146,-70.0983096
"IQUIQUE, ERRAZURIZ, SGTO. ALDEA",-20.2161356,-70.1435283
"IQUIQUE, AVDA. LA TIRANA, CAMPOS DEPORTES",-20.227256,-70.1298393
"ALTO HOSPICIO, AV. LOS CONDORES, 3350",-20.2709877,-70.1064781
"ALTO HOSPICIO, LOS AVELLANOS, LOS MANGOS, 2990",-20.2686722,-70.1049169
"ALTO HOSPICIO, CALLE FRANCIA ESQUINA SUECIA, 77",-20.2686722,-70.1049169
"IQUIQUE, AV. LA TIRANA, AVDA. LA TIRANA",-20.2543166,-70.1260602
"ALTO HOSPICIO, LOS DAMASCOS, LOS DATILES, 2890",-20.266297,-70.106833
"ALTO HOSPICIO, AV. RICARDO LAGOS ESQUINA LOS LAGOS, 25",-20.2799441,-70.0829007
"IQUIQUE, ARTURO FERNANDEZ, VICENTE ZEGERS",-20.2177736,-70.143625
"IQUIQUE, GENARO GALLO, THOMPSON",-20.2157202,-70.135764
"IQUIQUE, SOTOMAYOR, SEXTO ORIENTE",-20.2111333,-70.1416166
"ALTO HOSPICIO, AV. LOS AROMOS ESQUINA RAUL ERLICH, 3981",-20.273488,-70.0931295
"IQUIQUE, AVDA. TADEO HAENKE, ISABEL BONGARDT",-20.2307033,-70.1356692
"ALTO HOSPICIO, AV. RICARDO LAGOS ESQUINA LOS LAGOS, 25",-20.2799441,-70.0829007
"IQUIQUE, AVDA. PRAT, VIVAR",-20.2252901,-70.1495495
"IQUIQUE, AVDA. DIEGO PORTALES, COQUIMBO",-20.2309297,-70.1323457
"ALTO HOSPICIO, AV. LOS AROMOS, 3986",-20.2735975,-70.0927981
"IQUIQUE, OHIGGINS, VIVAR",-20.218536,-70.1488892
"IQUIQUE, M. CASTRO RAMOS, AVDA. PEDRO PRADO",-20.244863,-70.1334046
"IQUIQUE, ARTURO FERNANDEZ, LATORRE",-20.2170247,-70.1442119
"IQUIQUE, BARROS ARANA, ESMERALDA",-20.2116628,-70.1470863
"IQUIQUE, ESMERALDA, PATRICIO LYNCH",-20.2154369,-70.1513951
"ALTO HOSPICIO, AV, JERICO CON PJE. 5, 2290",-20.2494259,-70.1008346
"IQUIQUE, TARAPACA, BARROS ARANAS",-20.2175833,-70.1474318
"ALTO HOSPICIO, GABRIELA MISTRAL, 4307",-20.2911048,-70.1072107
"IQUIQUE, OHIGGINS, OBISPO LABBE",-20.2184392,-70.1503783
"ALTO HOSPICIO, AV. LOS AROMOS CON CALLE UNO, 2590",-20.273488,-70.0931295
"ALTO HOSPICIO, AV. LOS CONDORES CON R. P. OPAZO, 2790",-20.2686722,-70.1049169
"IQUIQUE, FCO. VERGARA, AVDA. PLAYA BRAVA",-20.2479851,-70.1368551
"IQUIQUE, AVDA. LA TIRANA, EL MONTE",-20.2543166,-70.1260602
"ALTO HOSPICIO, LOS AROMOS RUTA A-16, 3961",-20.2588937,-70.0732602
"IQUIQUE, ORELLA, AMUNATEGUI",-20.2206303,-70.146763
"POZO ALMONTE, COMERCIO, 21 DE MAYO",-20.2570503,-69.7857064
"IQUIQUE, AVDA. HEROES DE LA CONCEPCION, CESPEDES GONZALEZ",-20.2247382,-70.139754
"ALTO HOSPICIO, AV. LOS AROMOS, 3961",-20.2732375,-70.0933809
"ALTO HOSPICIO, AV. LA PAMPA, 2839",-20.2725252,-70.1029512
"IQUIQUE, ARTURO FERNANDEZ, CESPEDES GONZALEZ",-20.2245126,-70.1445436
"IQUIQUE, RANCAGUA, AVDA. CHIPANA",-34.1710586,-70.7351926
"IQUIQUE, CERRO DRAGON, MAULE",-20.2374931,-70.1298787
"ALTO HOSPICIO, AV. GABRIELA MISTRAL CON CALLE VENEZUELA, 2490",-20.2889864,-70.1061976
"IQUIQUE, TADEO HAENKE, ISABEL BONGARD",-20.2391223,-70.1414652
"IQUIQUE, AVDA. PRAT, STGO. POLANCO",-20.2466747,-70.1321136
"IQUIQUE, SERRANO, OBISPO LABBE",-20.2132565,-70.150245
"ALTO HOSPICIO, AV. LOS AROMOS, 1790",-20.2735743,-70.0934246
"ALTO HOSPICIO, pje. continental, 13",-20.285163,-70.1043669
"IQUIQUE, AVDA. COSTANERA, 4775",-20.2615799,-70.1311497
"IQUIQUE, OSCAR BONILLA, MOISES GONZALEZ",-20.2099445,-70.1398778
"ALTO HOSPICIO, AV. RAMON PEREZ OPAZO CON AV. LA PAMPA, 2490",-20.2720521,-70.1030057
"ALTO HOSPICIO, SANTA XIMENA, 1577",-20.2783619,-70.0963835
"IQUIQUE, AMUNATEGUI, MANUEL BULNES",-20.2195518,-70.1467191
"ALTO HOSPICIO, TILIVICHE, 3342",-20.2766979,-70.1073803
"IQUIQUE, SECTOR BAJO MOLLE, FTE. KAMIKASE",-20.2928084,-70.1200469
"IQUIQUE, AVDA. PLAYA BRAVA, PEDRO GAMBONI",-20.2432281,-70.1385607
"IQUIQUE, AVDA. FCO. BILBAO, AVDA. LA       TIRANA",-20.2691828,-70.1257417
"ALTO HOSPICIO, AV. RICARDO LAGOS CON CALLE LOS LAGOS, 2390",-20.2805098,-70.0828282
"IQUIQUE, TOMAS BONILLA, AVDA. H. DE LA CONCEPCION",-20.2307033,-70.1356692
"IQUIQUE, AVDA. LA TIRANA, PROGRESO",-20.2543166,-70.1260602
"IQUIQUE, TADEO HAENCKE, 1200",-20.2366234,-70.1454642
"ALTO HOSPICIO, GLADYS MARIN, FRANCIA, 58",-20.2896414,-70.1037676
"IQUIQUE, OHIGGINS, ARTURO FERNANDEZ",-20.2187948,-70.1443066
"ALTO HOSPICIO, PAMPA UNION ESQUINA LA PAMPA, 2390",-20.2720521,-70.1030057
"ALTO HOSPICIO, UNION EUROPEA ESQUINA FIRLANDIA, 1140",-20.2954506,-70.1016712
"ALTO HOSPICIO, LOS ALAMOS ESQUINA ALEX PRIETO, 2050",-20.270665,-70.107154
"IQUIQUE, INTERIOR RECINTO AMURALLADO, ZOFRI",-20.2070696,-70.1358118
"IQUIQUE, 21 DE MAYO, ZEGERS",-20.2177736,-70.143625
"ALTO HOSPICIO, LOS NOGALES ESQUINA LOS DATILES, 895",-20.2620837,-70.1037992
"IQUIQUE, ARTURO PEREZ CANTO, CESPEDES GONZALEZ",-20.2248356,-70.1380641
"IQUIQUE, AVDA. LA TIRANA, CAMPOS DEPORTES",-20.227256,-70.1298393
"ALTO HOSPICIO, AVDA. LAS AMERICAS ESQUINA AVDA. SANTA MARIA, 850",-20.2847174,-70.1022289
"IQUIQUE, AVDA. LA TIRANA, AVDA. RAMON PEREZ OPAZO",-20.2520595,-70.1267483
"ALTO HOSPICIO, AVDA. 14 ESQUINA AVDA. 15, 560",-20.2686722,-70.1049169
"IQUIQUE, 10 ORIENTE, SOTOMAYOR",-20.2170088,-70.1358607
"ALTO HOSPICIO, AVDA. LOS ALAMOS ESQUINA AVDA. LOS CONDORES, 1145",-20.2705889,-70.1068267
"IQUIQUE, carmen, 12",-20.2414367,-70.1342598
"ALTO HOSPICIO, AVDA.LAS AMERICAS ESQUINA AVDA. SANTA MARIA, 850",-20.2847174,-70.1022289
"IQUIQUE, ELEUTERIO RAMIREZ, ZEGERS",-20.2184918,-70.1494876
"IQUIQUE, SGTO. ALDEA, 18-sep",-20.2161654,-70.142953
"IQUIQUE, AVDA. LOS HEROES DE LA CONCEPCION, LOS LIRIOS",-20.2342038,-70.1425016
"ALTO HOSPICIO, AVDA. LOS AROMOS ESQUINA AVDA. LOS ALAMOS, 1045",-20.2686722,-70.1049169
"IQUIQUE, AVDA. LA TIRANA, BERNARDINO GUERRA",-20.2297783,-70.1290144
"IQUIQUE, AVDA. LA TIRANA, CASTRO RAMOS",-20.2444412,-70.1282904
"IQUIQUE, AVDA. A. PRAT, BAQUEDANO",-20.2226052,-70.1521698
"IQUIQUE, VICENTE ZEGERS, 21 DE MAYO",-20.2178506,-70.1419968
"ALTO HOSPICIO, AVDA. LOS AROMOS ESQUINA PJE. LOS NARANJOS, 455",-20.2686722,-70.1049169
"IQUIQUE, TARAPACA, BARROS ARANA",-20.2175833,-70.1474318
"IQUIQUE, SERRANO, AVDA. ARTURO PRAT",-20.244478,-70.1410328
"IQUIQUE, AVDA. LA TIRANA, CASTRO RAMOS",-20.2444412,-70.1282904
"ALTO HOSPICIO, PJE. VOLCAN LICANCABUR, 2375",-20.2878363,-70.0928158
"IQUIQUE, AVDA. PEDRO PRADO, CALLE TRES",-20.257236,-70.1300274
"POZO ALMONTE, ALDUNATE, 570",-20.2580828,-69.7838586
"IQUIQUE, AVDA. OHIGGINS, AVDA. PEDRO PRADO",-20.2193218,-70.1347013
"IQUIQUE, PRAT, 12",-20.21265,-70.1401344
"IQUIQUE, GENARO GALLO, LOS CLARINES",-20.2339491,-70.1380032
"ALTO HOSPICIO, CALLE ESMERALDA, 2961",-20.2680587,-70.1060255
"IQUIQUE, AVDA. PRAT, FRENTE CASINO DE JUEGOS",-20.21265,-70.1401344
"ALTO HOSPICIO, AVDA. LA PAMPA, 3744",-20.278394,-70.099073
"IQUIQUE, INTERIOR RECINTOS ZOFRI, SECTOR AMURALLADO",-20.206958,-70.1404458
"IQUIQUE, AVDA. PEDRO PRADO, PEDRO GAMBONI",-20.2364664,-70.1360525
"IQUIQUE, TARAPACA, AMUNATEGUI",-20.2176315,-70.1465983
"ALTO HOSPICIO, PJE. LOS PARRONALES ESQUINA LOS GUINDALES, 1107",-20.2622777,-70.1027825
"IQUIQUE, AVDA. SOLDADO PEDRO PRADO, PLAYA EL AGUILA",-20.25145,-70.1319383
"IQUIQUE, FERRONOR, AVDA. HEROES DE LA CONCEPCION",-20.2105882,-70.138407
"IQUIQUE, AVDA. HEROES DE LA CONCEPCION, ALMIRANTE LATORRE",-20.2173917,-70.1391838
"ALTO HOSPICIO, PJE. SANTA TERESA, 4114",-20.280298,-70.0906368
"ALTO HOSPICIO, CARMEN CARVAJAL, 3007",-20.2686722,-70.1049169
"ALTO HOSPICIO, AVDA LAS AMERICAS ESQUINA RUTA A-16, 4211",-20.2588937,-70.0732602
"ALTO HOSPICIO, AVDA. LA PAMPA ESQUINA CALLE SAN DONATO, 2500",-20.2686722,-70.1049169
"IQUIQUE, MANUEL BULNES, ARTURO FERNANDEZ",-20.2196748,-70.1443406
"ALTO HOSPICIO, AV. CIRCUNVALACION ESQUINA SAN PABLO, 4525",-20.2686722,-70.1049169
"ALTO HOSPICIO, AVDA. LOS AROMOS ESQUINA CALLE NUEVA, 2330",-20.2736545,-70.0937502
"IQUIQUE, CESPEDES GONZALEZ, ARTURO FERNANDEZ",-20.2245126,-70.1445436
"ALTO HOSPICIO, AVDA. LAS AMERICAS ESQUINA PJE. CHACA, 2245",-20.2891995,-70.1038837
"IQUIQUE, ORELLA, RAMIREZ",-20.2204813,-70.149581
"IQUIQUE, AVDA. A  PRAT, AVDA. AEROPUERTO",-20.2307033,-70.1356692
"IQUIQUE, LATORRE, 21 DE MAYO",-20.2170705,-70.1435776
"ALTO HOSPICIO, AVDA. LAS AMERICAS ESQUINA CALLE ISABEL RIQUELME, 2248",-20.2838936,-70.0968742
"ALTO HOSPICIO, CALLE tELEVICHI, 1156",-20.2686722,-70.1049169
"IQUIQUE, CESPEDES GONZALEZ, GENARO GALLO",-20.2249004,-70.1370717
"IQUIQUE, RAMIREZ, ORELLA",-20.2204813,-70.149581
"ALTO HOSPICIO, AVDA. MONTE LOS OLIVOS ESQUINA LAGUAN SAN RAFAEL, 215",-20.2686722,-70.1049169
"IQUIQUE, manuel rodriguez, Juan Martinez",-20.2234909,-70.1458415
"ALTO HOSPICIO, PEÑA RETIRO, 3553",-20.2788648,-70.1068919
"ALTO HOSPICIO, SIBAYA, 2821",-20.2671388,-70.1094154
"IQUIQUE, Serrano, 21 de Mayo",-20.2139275,-70.1415571
"IQUIQUE, PLAYA BRAVA, CASTRO RAMOS",-20.2455677,-70.1374529
"IQUIQUE, AVDA. TADEO HAENKE, AVDA. HEROES DE LA CONCEPCION",-20.2379949,-70.1442259
"ALTO HOSPICIO, ACDA. LOS ALAMOS ESQUINA CALLE LOS NOGALES, 2255",-20.2662507,-70.1025442
"IQUIQUE, TADEO HAENKE, 1115",-20.2380917,-70.1455542
"IQUIQUE, HEROES DE LA CONCEPCION, SOTOMAYOR",-20.2111906,-70.1384119
"IQUIQUE, AMUNATEGUI, 1854",-20.2257481,-70.1468996
"IQUIQUE, SOTOMAYOR, ARTURO PRAT",-20.2111333,-70.1416166
"IQUIQUE, ARTURO PRAT, 2752",-20.2476674,-70.1383188
"IQUIQUE, RANCAGUA, 3201",-20.2489303,-70.1308323
"IQUIQUE, GOMEZ CARREÑO, PEDRO DE VALDIVIA",-20.2329027,-70.133599
"IQUIQUE, PLAYA BLANCA, PLAYA EL AGUILA",-20.251327,-70.1314193
"PICA, calle collahuasi, 20",,
"IQUIQUE, santa coloma de farnes, SIN NOMBRE",41.8611741,2.6635017
"IQUIQUE, ARTURO PRAT, GENARO GALLO",-20.2431573,-70.1421653
"POZO ALMONTE, comercio, 630",-20.2570503,-69.7857064
"IQUIQUE, DIEGO PORTALES, ESPAÑA",-20.2307033,-70.1356692
"IQUIQUE, zegers, ARTURO FERNANDEZ",-20.2177479,-70.1442373
"IQUIQUE, ESMARALDA, VIVAR",-20.2115901,-70.1484112
"IQUIQUE, ZEGER, RAMIREZ",-20.2177736,-70.143625
"POZO ALMONTE, CANCHA LOS VIEJOS CRACK, 1",-20.2570503,-69.7857064
"IQUIQUE, LA TIRANA, 4802",-20.279979,-70.126807
"PICA, calle collhuasi, 22",,
"ALTO HOSPICIO, CALLE SAN DONATO ESQUINA SALITRERA PORVENIR, 3320",-20.2791572,-70.10511
"ALTO HOSPICIO, CALLE EL MIRADOR ESQUINA SAN DONATO, 3321",-20.2743974,-70.1020451
"ALTO HOSPICIO, LOS AROMOS, 3961",-20.2563991,-70.1063047
"IQUIQUE, 18 DE SEPTIEMBRE, BULNES",-20.2197336,-70.1431759
"IQUIQUE, GENARO GALLO, LAS MAGNOLIAS",-20.2363799,-70.1392149
"IQUIQUE, JORGE BARRERA, ARTURO PRAT",-20.2307033,-70.1356692
"ALTO HOSPICIO, CALLE LOS AROMOS, 3034",-20.2559988,-70.1060403
"IQUIQUE, ARTURO FERNANDEZ, CESPEDEZ Y GONZALEZ",-20.2245126,-70.1445436
"IQUIQUE, PUEBLO NUEVO, 1062",-20.2187832,-70.1365661
"ALTO HOSPICIO, PJE. LOS TAMARUGOS ESQUINA LOS NARANJOS, 2025",-20.2686722,-70.1049169
"IQUIQUE, CASTRO RAMOS, ARTURO FERNANDEZ",-20.2187948,-70.1443066
"IQUIQUE, SOTOMAYOR, PATRICIO LYNCH",-20.2109436,-70.151012
"ALTO HOSPICIO, PJE. SALITRERA IRIS ESQUINA PJE. LOS PERALES, 3318",-20.2686722,-70.1049169
"IQUIQUE, LA CONCORDIA, GENARO GALLO",-20.2385919,-70.1400282
"ALTO HOSPICIO, CALLE 1 ESQUINA PJE.1, 2560",-20.2686722,-70.1049169
"ALTO HOSPICIO, PJE. JAZPAMPA ESQUINA AVDA. LOS ALAMOS, 520",-20.2623245,-70.0960798
"POZO ALMONTE, COMERCIO/21 DE MAYO, 10",-20.2570503,-69.7857064
"IQUIQUE, ARTURO FERNANDEZ, CESPEDEZ Y GONZALEZ",-20.2245126,-70.1445436
"ALTO HOSPICIO, AVDA. LAS AMERICAS ESQUINA FIRLANDIA, 3354",-20.2891995,-70.1038837
"IQUIQUE, OHIGGINS, ANIBAL PINTO",-20.2182824,-70.1529419
"IQUIQUE, ORELLA, ARTURO PEREZ CANTO",-20.2211368,-70.1377023
"IQUIQUE, ARTURO FERNANDEZ, ZEGERS",-20.2307033,-70.1356692
"IQUIQUE, LAS ROSAS, PEDRO PRADO",-20.2384295,-70.1348415
"IQUIQUE, BARRANQUILLA, INTERIOR ZOFRI",-20.2075821,-70.1340093
"IQUIQUE, DIAGONAL BILBAO, BAJO MOLLE",-20.2307033,-70.1356692
"ALTO HOSPICIO, AVDA. LAS PARCELAS, 2215",-20.2764179,-70.0906732
"ALTO HOSPICIO, LOS GUINDALES ESQUINA AVDA. CERRO ESMERALDA, 2514",-20.2721122,-70.1000249
"ALTO HOSPICIO, AVDA. CERRO ESMERALDA ESQUINA LOS GUINDALES, 2558",-20.2645654,-70.1048838
"IQUIQUE, FRANCISCO BILBAO, PADRE HURTADO",-20.2616614,-70.129137
"ALTO HOSPICIO, JUANITA FERNANDEZ ESQUINA FRESIA, 155",-20.2686722,-70.1049169
"ALTO HOSPICIO, AVDA. LA PAMPA ESQUINA CIRCUNVALACIÓN, 3560",-20.2725893,-70.1031146
"IQUIQUE, PJE. LOS CHUNCHOS, 3577",-20.25917,-70.12467
"ALTO HOSPICIO, RAMON PEREZ OPAZO, 3080",-20.2677813,-70.1021048
"ALTO HOSPICIO, AVDA. SANTA ROSA DE MOLLE ESQUINA AVDA. LAS AMERICAS, 3322",-20.2844383,-70.1018421
"IQUIQUE, SERRANO, ERRAZURIZ",-20.2138148,-70.1431966
"IQUIQUE, serrano, 1145",-20.2139903,-70.1437767
"ALTO HOSPICIO, PJE. AGUA SANTA ESQUINA PJE. CHAPIQUIDA, 256",-20.2686722,-70.1049169
"ALTO HOSPICIO, CALLE LOS GUINDALES ESQUINA AVDA. LOS AROMOS, 482",-20.2652492,-70.1055102
"ALTO HOSPICIO, AVDA. LA PAMPA ESQUINA ALTO MOLLE, 2548",-20.2790751,-70.1023844
"IQUIQUE, AVDA. H. DE LA CONCEPCION, AVDA TADEO HAENKE",-20.2404198,-70.1372473
"ALTO HOSPICIO, TILIVICHE, LOS ALAMOS",-20.2686722,-70.1049169
"ALTO HOSPICIO, LOS AROMOS, 2945",-20.2626061,-70.1002901
"IQUIQUE, ZEGERS, 21 DE MAYO",-20.2178506,-70.1419968
"IQUIQUE, AVDA. ARTURO PRAT, AVDA. AEROPUERTO",-20.2307033,-70.1356692
"ALTO HOSPICIO, NACIONES UNIDAS, LAS AMERICAS",-20.2686722,-70.1049169
"ALTO HOSPICIO, LOS AROMOS, LOS ALAMOS",-20.2633566,-70.0990273
"ALTO HOSPICIO, LOS ALAMOS, CERRO ESMERALDA",-20.2721122,-70.1000249
"ALTO HOSPICIO, LA PAMPA, 3770",-20.2686722,-70.1049169
"IQUIQUE, SAN MARTIN, 774",-20.2126265,-70.1474446
"ALTO HOSPICIO, LAS AMERICAS, SANTA MARIA",-20.2847174,-70.1022289
"IQUIQUE, MANUEL BULNES, LUIS CRUZ MARTINEZ",-20.2199822,-70.1386986
"IQUIQUE, AVDA. SALVADOR ALLENDE, THOMPSON",-20.2307033,-70.1356692
"IQUIQUE, GOROSTIAGA, VIVAR",-20.2171999,-70.1487663
"ALTO HOSPICIO, LAS AMERICAS, 4021",-20.2825748,-70.1015994
"IQUIQUE, AVDA. SALVADOR ALLENDE, ORELLA",-20.2212841,-70.1348904
"IQUIQUE, LUIS JASPARD, AVDA. CIRCUNVALACION",-20.2080995,-70.1297933
"ALTO HOSPICIO, SAN DONATO, SANTA ROSA",-20.2768172,-70.1044794
"ALTO HOSPICIO, LOS ALAMOS, 3186",-20.2647901,-70.1009647
"IQUIQUE, AVDA. TADEO HAENKE, ERRAZURIZ",-20.2404198,-70.1372473
"POZO ALMONTE, ALIANZA ESQ. ALDUNATE, 0",-20.2585071,-69.7768888
"ALTO HOSPICIO, LOS GUINDALES, RAMON PEREZ OPAZO",-20.2647266,-70.1050322
"IQUIQUE, MANUEL BALMACEDA, FCO. BILBAO",-20.2645538,-70.1242542
"ALTO HOSPICIO, SAN AGUSTIN, 3516",-20.276948,-70.106879
"ALTO HOSPICIO, SANTA JIMENA, SANTA ROSA DE HUARA",-20.2714519,-70.0879295
"ALTO HOSPICIO, LAS AMERICAS, SANTA MARIA",-20.2847174,-70.1022289
"IQUIQUE, RUTA A-1, AEROPUERTO DIEGO ARACENA",-20.2307033,-70.1356692
"ALTO HOSPICIO, EL SALITRE, 3307",-20.2720405,-70.0968913
"IQUIQUE, AVDA. CIRCUNVALACION, SIBERIA",-20.2088203,-70.1297126
"IQUIQUE, ORELLA, OBISPO LABBE",-20.2203861,-70.1504462
"ALTO HOSPICIO, RAMON PEREZ OPAZO, LOS TAMARUGOS",-20.2683502,-70.1019814
"ALTO HOSPICIO, RICARDO LAGOS, ANTOFAGASTA",-23.6509279,-70.3975022
"IQUIQUE, AVDA. PRAT, PADRE HURTADO",-33.5706582,-70.8057546
"IQUIQUE, LATORRE, VIVAR",-20.2163419,-70.1486993
"IQUIQUE, AVDA. PRAT, RAMIREZ",-20.2307033,-70.1356692
"IQUIQUE, AMUNATEGUI, BULNES",-20.2195518,-70.1467191
"ALTO HOSPICIO, SANTA MARIA, LAS AMERICAS",-20.2847174,-70.1022289
"IQUIQUE, ALMIRANTE  LATORRE, AVDA. H. DE LA CONCEPCION",-20.2170705,-70.1435776
"IQUIQUE, RUTA A-16, CONTROL ACCESO ORIENTE",-20.2585155,-70.0726409
"IQUIQUE, RANCAGUA, PLAYA BLANCA",-20.2485799,-70.1307633
"IQUIQUE, CESPEDES GONZALEZ, AVDA. PEDRO PRADO",-20.2250238,-70.1352451
"IQUIQUE, MANUEL BULNES, ARTURO FERNANDEZ",-20.2196748,-70.1443406
"IQUIQUE, AVDA. LA TIRANA, 1452",-20.22268,-70.1319199
"IQUIQUE, AMUNATEGUI, DESIDERIO GARCIA",-20.2095067,-70.1457351
"POZO ALMONTE, ALIANZA ESQ. ALDUNATE, 0",-20.2585071,-69.7768888
"IQUIQUE, AVDA. TADEO HAENKE, CERRO DRAGON",-20.2386682,-70.1296108
"IQUIQUE, AVDA. ARTURO PRAT, PUERTA CHICA",-20.2065187,-70.1463349
"ALTO HOSPICIO, RUTA A-616, JERICO",-20.2686722,-70.1049169
"ALTO HOSPICIO, SANTA INES, 4206",-20.2686722,-70.1049169
"ALTO HOSPICIO, SAN DONATO, CALLE DOS",-20.2748883,-70.1038276
"IQUIQUE, AVDA. TADEO HAENKE, GENARO GALLO",-20.2394749,-70.1403552
"IQUIQUE, AVDA. LA TIRANA, EL MONTE",-20.2543166,-70.1260602
"IQUIQUE, SOTOMAYOR, 2000",-20.2117321,-70.1364288
"IQUIQUE, AVDA. A. PRAT, GENARO GALLO",-20.2431573,-70.1421653
"IQUIQUE, AVDA. P. HURTADO, AVDA. FCO BILBAO",-20.2616614,-70.129137
"IQUIQUE, TADEO HAENKE, 1312",-20.2371525,-70.1447798
"IQUIQUE, PLAYA BLANCA, PEDRO GAMBONI",-20.2404258,-70.1374811
"IQUIQUE, LAS CABRAS, OSCAR BONILLA",-20.2194645,-70.1403842
"IQUIQUE, AVDA. TADEO HAENKE, PEDRO GAMBONI",-20.2403508,-70.1374555
"IQUIQUE, ESMERALDA, ELEUTERIO RAMIREZ",-20.2184918,-70.1494876
"IQUIQUE, RANCAGUA, 3379",-20.2528396,-70.129916
"IQUIQUE, AV. PRAT, 4311",-20.2716039,-70.1298475
"IQUIQUE, AVDA. PRAT, LOS MOLLES",-20.2307033,-70.1356692
"ALTO HOSPICIO, AV. LOS CONDORES, AV. RAMON PEREZ OPAZO",-20.272945,-70.1005126
"IQUIQUE, AVDA. CIRCUNVALACION, LUIS JASPARD",-20.2080995,-70.1297933
"IQUIQUE, AVDA. H. DE LA CONCEPCION, ORELLA",-20.2307033,-70.1356692
"ALTO HOSPICIO, PASAJE CINCO, AV. LA PAMPA",-20.273443,-70.1052633
"ALTO HOSPICIO, GLADYS MARIN, FRANCIA",-20.290769,-70.1008955
"IQUIQUE, ESPAÑA, HERNAN   FUENZALIDA",-20.2307033,-70.1356692
"IQUIQUE, ORELLA, 21 DE MAYO",-20.2208923,-70.1421601
"ALTO HOSPICIO, CALLE DOS, EL MIRADOR",-20.2763565,-70.1001686
"ALTO HOSPICIO, ESPERANZA, 20",-20.2686722,-70.1049169
"ALTO HOSPICIO, CALLE CUATRO, JERUSALEM",-20.2686722,-70.1049169
"IQUIQUE, AMUNATEGUI, TOMAS BONILLA",-20.2274009,-70.147132
"ALTO HOSPICIO, AV. LAS AMERICAS, A-16",-20.2901059,-70.1042119
"ALTO HOSPICIO, LOS AROMOS, SALITRERA LAGUNAS",-20.2708871,-70.1004936
"IQUIQUE, SAN MARTIN, 880",-20.21263,-70.1463286
"IQUIQUE, ROTONDA EL PAMPINO, AVDA. LA TIRANA",-20.2208561,-70.1319844
"IQUIQUE, GENARO GALLO, LAS ROZAS",-20.2373067,-70.139562
"IQUIQUE, AVDA. PEDRO PRADO, AVDA. M. BULNES",-20.2201814,-70.1349026
"IQUIQUE, GENARO GALLO, HERNAN FUENZALIDA",-20.2289249,-70.137476
"IQUIQUE, AVDA. P. PRADO., COLEGIO CROACIA",-20.2273547,-70.1350917
"ALTO HOSPICIO, ALEMANIA, AMERICAS",-20.2925369,-70.1015671
"IQUIQUE, PASAJE MATILLA, 3454",-20.2521259,-70.1239166
"IQUIQUE, THOMPSON, GENARO GALLO",-20.2157202,-70.135764
"ALTO HOSPICIO, SANTA ISABEL, 3627",-20.2753093,-70.1028566
"ALTO HOSPICIO, PJE. TALCAHUANO, 4522",-20.2765368,-70.0816464
"POZO ALMONTE, oscar caqueo/hector basualto, 0",-20.264391,-69.7796037
"IQUIQUE, AVDA. FCO. BILBAO, 5  NORTE",-20.2617337,-70.1290955
"IQUIQUE, SOTOMAYOR, AMUNATEGUI",-20.2109195,-70.1459124
"ALTO HOSPICIO, CIRCUNVALACION, GUINDALES",-20.2652492,-70.1055102
"IQUIQUE, DIEGO PORTALES, 1344",-20.2292273,-70.1433828
"IQUIQUE, VIVAR, 930",-20.2167664,-70.1485462
"IQUIQUE, JUAN MARTINEZ, 2002",-20.227591,-70.1459518
"IQUIQUE, SAN MARTIN, 736",-20.212625,-70.1476469
"IQUIQUE, AVDA. FRANCISCO VERGARA, 3885",-20.2570366,-70.1318003
"IQUIQUE, AVDA. HEROES DE LA CONCEPCION, DIEGO PORTALES",-20.2301432,-70.1411798
"IQUIQUE, AVDA. CIRCUNVALACION, 56",-20.2059673,-70.1305203
"ALTO HOSPICIO, RAMON PEREZ OPAZO, AV. LA PAMPA",-20.2700618,-70.100866
"IQUIQUE, SOLDADO PEDRO PRADO, TOMAS BONILLA",-20.2279008,-70.1354882
"CAMINA, CAMINO A SOGA, 60000",,
"ALTO HOSPICIO, RAMON PEREZ OPAZO, 3262",-20.270972,-70.1002261
"IQUIQUE, PATRICIO LYNCH, SOTOMAYOR",-20.2154369,-70.1513951
"ALTO HOSPICIO, RAMON PEREZ OPAZO, CHACA",-20.2692348,-70.1013055
"ALTO HOSPICIO, FINLANDIA, MANZANA  71 FRENTE SITIO, 6",-20.2686722,-70.1049169
"IQUIQUE, ZAPIGA, 2217",-20.2431896,-70.1356286
"IQUIQUE, COLO-COLO, HERNAN FUENZALIDA",-20.2289498,-70.1369628
"IQUIQUE, MANUEL RODRIGUEZ, OBISPO LABBE",-20.2233179,-70.1505699
"IQUIQUE, GENARO GALLO, JOSE MIGUEL CARRERA",-20.2268367,-70.1372722
"ALTO HOSPICIO, ALEMANIA, GLADYS MARIN",-20.2925369,-70.1015671
"IQUIQUE, SHAHONM, HONG- KONG",-20.2307033,-70.1356692
"IQUIQUE, AVDA. PRAT, LOS MOLLES",-20.2307033,-70.1356692
"IQUIQUE, CIRCUNVALACION, SOTOMAYOR",-20.2111333,-70.1416166
"IQUIQUE, SAN MARTIN, 18 DE SEPTIEMBRE",-20.212678,-70.1481829
"ALTO HOSPICIO, CALLE UNO, PASAJE TRES",-20.2570281,-70.1071808
"ALTO HOSPICIO, PAMPA UNION, LA PAMPA",-20.2686722,-70.1049169
"IQUIQUE, AVDA. FCO. BILBAO, PADRE HURTADO",-20.2616614,-70.129137
"IQUIQUE, BARROS ARANA, MANUEL RODRIGUEZ",-20.2234394,-70.1477687
"IQUIQUE, AVDA. CERRO DRAGON, 2474",-20.2326192,-70.1300418
"ALTO HOSPICIO, AV. CUATRO, NORMANDIA",-20.2686722,-70.1049169
"IQUIQUE, AVDA. H. DE LA CONCEPCION, MANUEL RODRIGUEZ",-20.2236,-70.1434542
"IQUIQUE, AVDA. VIAL LOCAL 4, SITIO 1",-20.2307033,-70.1356692
"ALTO HOSPICIO, AV. LA PAMPA, 3691",-20.2789047,-70.1017749
"IQUIQUE, AVDA. LA TIRANA, SANTA ELENA",-20.2543166,-70.1260602
"ALTO HOSPICIO, MADAGASCAR MANZANA 15 FRENTE SITIO, 17",-20.2686722,-70.1049169
"ALTO HOSPICIO, POLONIA, SUIZA",-20.2935591,-70.104376
"IQUIQUE, PATRICIO LYNCH, SOTOMAYOR",-20.2154369,-70.1513951
"IQUIQUE, AVDA. FCO. BILBAO., 4806",-20.2670733,-70.1259723
"IQUIQUE, AVDA. FRANCISCO BILBAO, 4138",-20.2668451,-70.1256521
"ALTO HOSPICIO, LAS PARCELAS, 43",-20.2686722,-70.1049169
"IQUIQUE, JUAN MARTINEZ, SAN MARTIN",-20.2128199,-70.1448148
"IQUIQUE, AVDA. PLAYA BRAVA, STGO. POLANCO",-20.2478923,-70.1368759
"IQUIQUE, MANUEL RODRIGUEZ, ARTURO PEREZ CANTO",-20.2238191,-70.1379526
"ALTO HOSPICIO, LOS ALAMOS, ESMERALDA",-20.2686722,-70.1049169
"IQUIQUE, ARTURO FERNANDEZ, ZEGERS",-20.2307033,-70.1356692
"IQUIQUE, AVDA. FRANCISCO BILBAO, 3233",-20.2560639,-70.1338923
"IQUIQUE, ANIBAL PINTO, THOMPSON",-20.2144119,-70.1528609
"ALTO HOSPICIO, AV. LAS AMERICAS, SANTA MARIA",-20.2686722,-70.1049169
"ALTO HOSPICIO, LOS AROMOS, LOS DATILES",-20.2602461,-70.1029932
"IQUIQUE, AV CIRCUNVALACION, ROTONDA EL PAMPINO",-20.2208561,-70.1319844
"ALTO HOSPICIO, NACIONES UNIDAS, SUECIA",60.128161,18.643501
"IQUIQUE, ORELLA, VIVAR",-20.2205113,-70.149037
"IQUIQUE, AVDA. LA TIRANA, CENTRO DEP. UNIVERSIDAD DEL MAR",-20.2543166,-70.1260602
"ALTO HOSPICIO, RAMON PEREZ OPAZO, LOS DATILES",-20.2642587,-70.1057858
"IQUIQUE, BUGAVILIAS, TADEO HEANKE",-20.2307033,-70.1356692
"IQUIQUE, OHIGGINS, ERRAZURIZ",-20.2188278,-70.1436951
"IQUIQUE, AVDA. P. PRADO, J. M. CARRERA",-20.2307033,-70.1356692
"ALTO HOSPICIO, LOS AROMOS, EL SALITRE",-20.2705558,-70.0945973
"IQUIQUE, SGTO,. ALDEA, AVDA. H. DE LA CONCEPCION",-20.2162049,-70.1418754
"IQUIQUE, ARTURO FERNANDEZ, ZEGERS",-20.2307033,-70.1356692
"IQUIQUE, EL CARMELO, 3231",-20.249323,-70.1253356
"IQUIQUE, PLAYA BLANCA, RUTA A-1",-20.2485799,-70.1307633
"IQUIQUE, PATRICIO LYNCH, RIQUELME",-20.2212074,-70.1515192
"IQUIQUE, ORELLA, ARTURO FERNANDEZ",-20.2207652,-70.1443587
"IQUIQUE, AVDA. H. DE LA CONCEPCION, J. J. PEREZ",-20.2227166,-70.1417354
"IQUIQUE, AVDA. FRANCISCO BILBAO, 3200",-20.2557252,-70.1339579
"ALTO HOSPICIO, LOS NOGALES, LOS DATILES",-20.2620837,-70.1037992
"IQUIQUE, LAS ROZAS, 1864",-20.2414367,-70.1342598
"IQUIQUE, AVDA. PRAT, ROTONDA CHIPANA",-20.2307033,-70.1356692
"IQUIQUE, CUARTA SUR, 2596",-20.2729545,-70.1260395
"IQUIQUE, AVDA. PRAT, SECOR DISCOTEQUE LIVERPOL",-20.2307033,-70.1356692
"IQUIQUE, AVDA. FCO.VERGARA, STGO POLANCO",-20.2471645,-70.1350603
"ALTO HOSPICIO, LAS AMERICAS, CARMELA CARVAJAL",-20.2800542,-70.1007563
"IQUIQUE, AVDA. PLAYA BRAVA, AVDA. AEROPUERTO",-20.2307033,-70.1356692
"ALTO HOSPICIO, CIRCUNVALACION, LOS GUINDALES",-20.2652492,-70.1055102
"IQUIQUE, AVDA. BILBAO, AVDA. P. HURTADO",-20.2616614,-70.129137
"IQUIQUE, ROTONDA EL PAMPINO, BULNES",-20.2307033,-70.1356692
"ALTO HOSPICIO, LOS GUINDALES, LOS LIMONEROS",-20.2619648,-70.1024486
"IQUIQUE, AVDA. CERRO DRAGON, AVDA. PADRE HURTADO",-20.2603655,-70.1270142
"IQUIQUE, AVDA. LA TIRANA, SANTA ELENA",-20.2543166,-70.1260602
"ALTO HOSPICIO, PORTUGAL, SUECIA",60.128161,18.643501
"IQUIQUE, AVDA. LA TIRANA, LAS ACACIAS",-20.2543166,-70.1260602
"ALTO HOSPICIO, LAS PARCELAS, LOS ALAMOS",-20.2686722,-70.1049169
"IQUIQUE, MAULE, RANCAGUA",-20.2307033,-70.1356692
"IQUIQUE, AVDA. LA TIRANA, EDO. FREI",-20.2543166,-70.1260602
"ALTO HOSPICIO, A-16, LAS AMERICAS",-20.2868313,-70.1029781
"ALTO HOSPICIO, RICARDO LAGOS, IQUIQUE",-20.2815054,-70.0846839
"IQUIQUE, AVDA. A. PRAT, 6TA. DIVISION EJERCITO",-20.2484469,-70.1381101
"ALTO HOSPICIO, RICARDO LAGOS, LOS LAGOS",-20.2808075,-70.0826969
"ALTO HOSPICIO, LAS AMERICAS, CANADA",56.130366,-106.346771
"IQUIQUE, SGTO. ALDEA, BARROS ARANA",-20.2160002,-70.1472917
"IQUIQUE, INTERIOR RECINTO AMURALLADO, ZONA FRANCA",-20.2070696,-70.1358118
"IQUIQUE, AVDA. PRAT, 3455",-20.2481527,-70.1380287
"IQUIQUE, AVDA. PRAT, SAGASCA",-20.21265,-70.1401344
"ALTO HOSPICIO, JERICO, CALLE SIETE",-20.2686722,-70.1049169
"IQUIQUE, JUAN MARTINEZ, VICENTE ZEGERS",-20.2307033,-70.1356692
"IQUIQUE, SOLDADO  PEDRO  PRADO, JOSE MIGUEL CARRERA",-20.2269962,-70.1354064
"IQUIQUE, AVDA. BULNES, AVDA. P. PRADO",-20.2201814,-70.1349026
"IQUIQUE, AVDA LA TIRANA, EL MONTE",-20.2543166,-70.1260602
"ALTO HOSPICIO, RAMON PEREZ OPAZO, LOS ALAMOS",-20.2666181,-70.1028585
"ALTO HOSPICIO, CALLE UNO, PASAJE UNO",-20.2561196,-70.1083565
"POZO ALMONTE, comercio/victoria, 0",-20.2570503,-69.7857064
"IQUIQUE, RAMIREZ, ORELLA",-20.2204813,-70.149581
"IQUIQUE, OBISPO LABBE, TARAPACA",-20.2158511,-70.1502751
"IQUIQUE, ZEGERS, 249",-20.2174689,-70.1525678
"IQUIQUE, AVDA. A. PRAT, LOS MOLLES",-20.2307033,-70.1356692
"ALTO HOSPICIO, RUTA A-616, LUIS EMILIO RECABARREN",-20.2320384,-70.0334336
"IQUIQUE, AVDA. PRAT, PLAYA HUAYQUIQUE",-20.2798817,-70.1298027
"IQUIQUE, BULNES, JUAN MARTINEZ",-20.219616,-70.1454426
"IQUIQUE, GENARO GALLO, CESPEDES GONZALEZ",-20.2249004,-70.1370717
"POZO ALMONTE, aldunate/pampa germania, 0",-20.2613588,-69.7846368
"IQUIQUE, DIEGO PORTALES, ALONSO DE ERCILLA",-20.2309945,-70.131854
"IQUIQUE, ESMERALDA, PATRICIO LYNCH",-20.2154369,-70.1513951
"IQUIQUE, AVDA. A. PRAT, FTE. CASINO DE JUEGOS",-20.2484469,-70.1381101
"IQUIQUE, LAS ROSAS, LAS PASIONARIAS",-20.2374219,-70.1391931
"ALTO HOSPICIO, GABRIELA MISTRAL, SANTA MARIA",-20.2839611,-70.1044103
"IQUIQUE, AVDA. PRAT, ROTONDA CAVANCHA",-20.2307033,-70.1356692
"ALTO HOSPICIO, VOLCAN OJOS DEL SALADO, 3397",-20.2890803,-70.0922105
"IQUIQUE, CESPEDES GONZALEZ, AVDA. P. PRADO",-20.2250238,-70.1352451
"ALTO HOSPICIO, GABRIELA MISTRAL, RIO MAIPO",-20.2932518,-70.1078228
"ALTO HOSPICIO, ESMERALDA, GUINDALES",-20.266942,-70.1070489
"IQUIQUE, GRUMETE BOLADOS, 186",-20.2164744,-70.153332
"ALTO HOSPICIO, LOS ALAMOS, LAS PARCELAS",-20.2686722,-70.1049169
"IQUIQUE, ESMERALDA, ELEUTERIO RAMIREZ",-20.2184918,-70.1494876
"IQUIQUE, OBISPO LABBE, LATORRE",-20.2157088,-70.1502676
"IQUIQUE, ARTURO FERNANDEZ, CESPEDES GONZALEZ",-20.2245126,-70.1445436
"IQUIQUE, AVDA. ARTURO PRAT, 2250",-20.2301143,-70.1468849
"IQUIQUE, DIEGO PORTALES, AVDA. A. PRAT",-20.2307033,-70.1356692
"IQUIQUE, SOTOMAYOR, AVDA. CIRCUNVALACION",-20.2134898,-70.1310453
"ALTO HOSPICIO, LOS ALMENDROS, LOS TAMARUGOS",-20.2678645,-70.1010891
"IQUIQUE, AVDA. LA TIRANA, EL MONTE",-20.2543166,-70.1260602
"ALTO HOSPICIO, VALLENAR, LA SERENA",-29.9058174,-71.2501308
"IQUIQUE, PEDRO LAGOS, FREDDY TABERNA",-20.2167985,-70.1548317
"IQUIQUE, AVDA. ARTURO PRAT, STGO. POLANCO",-20.2486089,-70.1382111
"IQUIQUE, DIEGO PORTALES, OSCAR BONILLA",-20.2297964,-70.1422898
"ALTO HOSPICIO, LOS ALAMOS, LOS MANZANOS",-20.2653728,-70.1015975
"ALTO HOSPICIO, AV. LOS AROMOS, 26",-20.2907066,-70.0843539
"ALTO HOSPICIO, LOS GUINDALES, LOS MANZANOS",-20.2633308,-70.10375
"IQUIQUE, AVDA. H. DE LA CONCEPCION, MALL LAS AMERICAS",-20.2307033,-70.1356692
"IQUIQUE, AVDA. GOMEZ CARREÑO, CERRO DRAGON",-20.2330057,-70.1302175
"ALTO HOSPICIO, SECTOR ZIG ZAG. A-616, 4",-20.2541787,-70.10893
"IQUIQUE, AMUNATEGUI, OHIGGINS",-20.2186578,-70.1466761
"IQUIQUE, VALLE CENTRAL, 3174",-20.2477273,-70.1252004
"ALTO HOSPICIO, CALLE 77, CALLE 7",-20.2925516,-70.1069453
"IQUIQUE, LIBERTAD, GENARO GALLO",-20.2289249,-70.137476
"IQUIQUE, RAMIREZ, CESPEDES GONZALEZ",-20.2243019,-70.1497478
"IQUIQUE, OSCAR BONILLA, HERNAN FUENZALIDA",-20.2287073,-70.1418764
"ALTO HOSPICIO, LOS TAMARUGOS, LOS KIWIS",-20.268833,-70.1028797
"IQUIQUE, BULNES, SALVADOR ALLENDE",-20.2201543,-70.1353452
"IQUIQUE, M. BULNES, ARTURO FERNANDEZ",-20.2196748,-70.1443406
"IQUIQUE, VIVAR, ZEGERS",-20.2175284,-70.1487847
"ALTO HOSPICIO, LOS AROMOS, 29",-20.2556598,-70.1069637
"IQUIQUE, RUTA A-16, CHANAVAYITA",-20.2585155,-70.0726409
"IQUIQUE, ORELLA, 21 DE MAYO",-20.2208923,-70.1421601
"ALTO HOSPICIO, CALLE OCHO, CALLE VEINTE",-20.2947193,-70.1077046
"IQUIQUE, AVDA. ARTURO PRAT, VIVAR",-20.2255093,-70.1494647
"IQUIQUE, VIVAR, TARAPACA",-20.218536,-70.1488892
"IQUIQUE, BERNARDO OHIGGINS, ANIBAL PINTO",-20.2182824,-70.1529419
"IQUIQUE, GENARO GALLO, LOS GLADIOLOS",-20.2334817,-70.1379182
"IQUIQUE, VIVAR, MANUEL BULNES",-20.2194358,-70.1489677
"IQUIQUE, SOTOMAYOR, JUAN MARTINEZ",-20.2109821,-70.1445867
"IQUIQUE, PEDRO PRADO, PLAYA EL AGUILA",-20.25145,-70.1319383
"ALTO HOSPICIO, FRANCIA, GLADYS MARIN",-20.2686722,-70.1049169
"IQUIQUE, ZONA FRANCA, PUERTA CUATRO",-20.2307033,-70.1356692
"ALTO HOSPICIO, LOS CONDORES, LOS TAMARUGOS",-20.2714671,-70.1045706
"IQUIQUE, LATORRE, BARROS ARANA",-20.2167999,-70.1474162
"ALTO HOSPICIO, CIRCUNVALACION, SAN DONATO",-20.2798646,-70.1055245
"IQUIQUE, CIRCUMBALACIOM, ROTONDA EL PAMPINO",-20.2208561,-70.1319844
"ALTO HOSPICIO, LAS AMERICAS, CARMELA CARVAJAL",-20.2800542,-70.1007563
"IQUIQUE, TADEO HAENKE, ROTONDA CAVANCHA",-20.2319768,-70.1471435
"IQUIQUE, LOS ALGARROBOS, PJE. UNO",-20.2307033,-70.1356692
"IQUIQUE, AV. ARTURO PRAT, COLEGIO INGLES",-20.2228543,-70.151476
"IQUIQUE, AVDA. ARTURO PRAT, 2098",-20.2301181,-70.1461667
"IQUIQUE, ESMERALDA, JUAN MARTINEZ",-20.2193478,-70.1454167
"IQUIQUE, SALVADOR ALLENDE, MANUEL BULNES",-20.2201814,-70.1349026
"ALTO HOSPICIO, PAMPA UNION, TILIVICHE",-20.275428,-70.1057337
"IQUIQUE, SOTOMAYOR, RAMIREZ",-20.2107991,-70.1491654
"IQUIQUE, RAMIREZ, MANUEL RODRIGUEZ",-20.2233541,-70.1497193
"POZO ALMONTE, comercio, ARICA",-18.4320081,-70.2922694
"IQUIQUE, BULNES, JUAN MARTINEZ",-20.219616,-70.1454426
"IQUIQUE, GENARO GALLO, LAS ROSAS",-20.2373067,-70.139562
"ALTO HOSPICIO, LOS ALAMOS, LOS PARRONES",-20.2634645,-70.1013358
"IQUIQUE, ARTURO PEREZ CANTO, IGNACIO CARRERA PINTO",-20.2307033,-70.1356692
"IQUIQUE, AVDA. AEROPUERTO, TEDEO HAENKE",-20.2307033,-70.1356692
"IQUIQUE, SANTIAGO POLANCO, FRANCISCO VERGARA",-20.2471645,-70.1350603
"ALTO HOSPICIO, GABRIELA MISTRAL, PAULA JARAQUEMADA",-20.2822965,-70.1038013
"ALTO HOSPICIO, ALTO MOLLE, CALLE CUATRO",-20.2775307,-70.1021922
"IQUIQUE, AV. ARTURO PRAT, PLAYA CAVANCHA",-20.2318146,-70.1471027
"IQUIQUE, CERRO DRAGON, SANTIAGO POLANCO",-20.2460858,-70.1296584
"IQUIQUE, AV. ARTURO PRAT, ANIBAL PINTO",-20.2117876,-70.1528536
"IQUIQUE, LIBERTAD, AMUNATEGUI",-20.2176315,-70.1465983
"ALTO HOSPICIO, VOLCAN VILLARRICA, VOLCAN LICANCABUR",-20.2686722,-70.1049169
"ALTO HOSPICIO, GABRIELA MISTRAL, CANADA",-20.2853229,-70.1048561
"IQUIQUE, GENARO GALLO, AVDA. TADEO HAENKE",-20.2394749,-70.1403552
"IQUIQUE, INTERIOR TERMINAL AGROPECUARIO, AVDA. PROGRESO",-20.2307033,-70.1356692
"ALTO HOSPICIO, RAMON PEREZ OPAZO, LOS POMELOS",-20.2660119,-70.1036191
"ALTO HOSPICIO, LAS FRUTILLAS, 2845",-20.2636557,-70.1071056
"ALTO HOSPICIO, LOS CONDORES, 3525",-20.272345,-70.1025923
"ALTO HOSPICIO, LAS AMERICAS, SANTA MARIA",-20.2847174,-70.1022289
"IQUIQUE, CERRO DRAGON, RAMON PEREZ OPAZO",-20.253063,-70.128361
"IQUIQUE, INETRIOR RECINTOS ZOFRI, GALPON NRO. 05",-20.206958,-70.1404458
"IQUIQUE, PJE. PERU, ORELLA",-20.2208235,-70.1432206
"IQUIQUE, AVDA. H. DE LA CONCEPCION, CESPEDES GONZALEZ",-20.2307033,-70.1356692
"IQUIQUE, AVDA. LA TIRANA, CALLE CUATRO",-20.2543166,-70.1260602
"ALTO HOSPICIO, LOS AROMOS, 26",-20.2556598,-70.1069637
"ALTO HOSPICIO, RAMON PEREZ OPAZO, LOS ALAMOS",-20.2666181,-70.1028585
"ALTO HOSPICIO, MONTE LOS OLIVOS, 2893",-20.2592623,-70.0986926
"ALTO HOSPICIO, MACAYA, UJINA",-20.2721425,-70.1081136
"IQUIQUE, GENARO GALLO, ERNESTO RIQUELME",-20.2221154,-70.1367067
"ALTO HOSPICIO, LOS AROMOS, 4085",-20.2563991,-70.1063047
"ALTO HOSPICIO, SANTA TERESA, 4024",-20.2793338,-70.0921639
"IQUIQUE, AMUNATEGUI, OHIGGINS",-20.2186578,-70.1466761
"POZO ALMONTE, camino alternativo, sector lugaya, poblado mamiña, 5",-20.2570503,-69.7857064
"IQUIQUE, AVDA. OHIGGINS, AVDA. PEDRO PRADO",-20.2193218,-70.1347013
"ALTO HOSPICIO, LOS ALAMOS, LOS NOGALES",-20.2646179,-70.1005485
"IQUIQUE, AVDA. AEROPUERTO, PJE. LAS MAGNOLIAS",-20.2361216,-70.1416768
"IQUIQUE, 21 DE MAYO, TARAPACA",-20.2189238,-70.1420816
"IQUIQUE, AVDA. AEROPUERTO, TADEO HEMKEE",-20.2307033,-70.1356692
"ALTO HOSPICIO, CIRCUNVALACION, PACHICA",-20.2661336,-70.1097684
"IQUIQUE, BULNES, RAMIREZ",-20.2193967,-70.1495306
"IQUIQUE, AVDA. P. PRADO, AVDA. CHIPANA",-20.2396655,-70.1345536
"IQUIQUE, AVDA. OHIGGINS, ARTURO FERNANDEZ",-20.2187948,-70.1443066
"IQUIQUE, TADEO HAENKE, AVDA. HEROES DE LA CONCEPCION",-20.2379949,-70.1442259
"ALTO HOSPICIO, PERALES, LAGUNAS",-20.2686722,-70.1049169
"IQUIQUE, RANCAGUA, AVDA. CHIPANA",-34.1710586,-70.7351926
"POZO ALMONTE, circunvalacion/salitrera iris, 0",-20.2561176,-69.7877202
"IQUIQUE, PJE. JUAN NOE, RIQUELME",-20.2307033,-70.1356692
"IQUIQUE, ZEGERS, A. FERNANDEZ",-20.2177736,-70.143625
"ALTO HOSPICIO, PAMPA UNION, ALTO MOLLE",-20.2764584,-70.1018494
"IQUIQUE, SOTOMAYOR, OBISPO LABBE",-20.2109056,-70.1502143
"IQUIQUE, J. MARTINEZ, ORELLA",-20.2208235,-70.1432206
"IQUIQUE, PLAYA HUAYQUIQUE, 5000",-20.2798817,-70.1298027
"ALTO HOSPICIO, CERRO TARAPACA, SECTOR LA PAMPA",-20.2686722,-70.1049169
"IQUIQUE, SALITRERA VICTORIA, PJE. SANTA CRUZ",-20.2049542,-70.1369169
"IQUIQUE, AVDA. RAMON PEREZ OPAZO, AVDA. SALVADOR ALLENDE",-20.2542691,-70.1314071
"IQUIQUE, LUIS JASPARD, SOTOMAYOR",-20.2118495,-70.1367064
"IQUIQUE, AVDA. LBERTADOR BDO. OHIGGINS, LUIS CRUZ MARTINEZ",-20.2191438,-70.1385965
"IQUIQUE, A. FERNANDEZ, BULNES",-20.2307033,-70.1356692
"ALTO HOSPICIO, LOS CONDORES, TARAPACA",-20.2686722,-70.1049169
"IQUIQUE, AVDA. A. FERNANDEZ, ORELLA",-20.2208235,-70.1432206
"IQUIQUE, BULNES, ARTURO FERNANDEZ",-20.2196748,-70.1443406
"ALTO HOSPICIO, VOLCAN SOCOMPA, 3400",-20.2880015,-70.0914646
"IQUIQUE, ERAZURIZ, PLAZA ARICA",-20.2132696,-70.1433258
"ALTO HOSPICIO, SANTA ROSA DE MOLLE, RICARDO LAGOS ESCOBAR",-20.2718999,-70.0889182
"ALTO HOSPICIO, LOS AROMOS, 4136",-20.2559988,-70.1060403
"IQUIQUE, AVDA. PROGRESO, 2DA. SUR",-20.2243231,-70.1331496
"ALTO HOSPICIO, LAS AMERICAS, NACIONES UNIDAS",-20.2686722,-70.1049169
"ALTO HOSPICIO, LOS CONDORES, IRIS",-20.2719484,-70.1029629
"IQUIQUE, FERROCARIL, JUAN MARTINEZ",-20.2086106,-70.1441502
"IQUIQUE, AVDA. PRAT, ROTONDA CAVANCHA",-20.2307033,-70.1356692
"IQUIQUE, AVDA. P. BRAVA, PEDRO GAMBONI",-20.2404258,-70.1374811
"ALTO HOSPICIO, RAMON PEREZ OPAZO, PAMPA UNION",-20.2776152,-70.0986886
"IQUIQUE, AVDA. PRAT, PAPAGALLO",-20.2307033,-70.1356692
"IQUIQUE, AVDA. PRAT, BARROS ARANA",-20.2175833,-70.1474318
"IQUIQUE, PATRICIO LYNCH, RIQUELME",-20.2212074,-70.1515192
"ALTO HOSPICIO, LA PAMPA, PAMPA UNION",-20.2748483,-70.1070925
"ALTO HOSPICIO, GUINDALES, ESMERALDA",-20.2652492,-70.1055102
"IQUIQUE, AVDA. PLAYA BRAVA, GENARO GALLO",-20.2422792,-70.1413978
"ALTO HOSPICIO, PAMPA UNION, LA PAMPA",-20.2686722,-70.1049169
"IQUIQUE, AVDA. A. PRAT, DIEGO PORTALES",-20.2307033,-70.1356692
"ALTO HOSPICIO, LOS ALAMOS, LAS PARCELAS",-20.2686722,-70.1049169
"IQUIQUE, RUTA A-16, ROTONDA EL PAMPINO",-20.2585155,-70.0726409
"IQUIQUE, OBISPO LABBE, M. BULNES",-20.219294,-70.150411
"IQUIQUE, ROTONDA EL PAMPINO, OHIGGINS",-20.2307033,-70.1356692
"IQUIQUE, AVDA. P. PRADO, AVDA. BULNES",-20.2201814,-70.1349026
"ALTO HOSPICIO, BRITANIA, 2249",-20.2453257,-70.097092
"IQUIQUE, SIMON BOLIVAR, OBISPO LABBE",-20.2158511,-70.1502751
"POZO ALMONTE, VALLE QUISMA, MATILLA, 0",-20.2570503,-69.7857064
"IQUIQUE, AVDA. CIRCUNVALACION, 800",-20.2135254,-70.1311813
"ALTO HOSPICIO, LA PAMPA, SAN DONATO",-20.2768172,-70.1044794
"IQUIQUE, AVDA. BILBAO, CALLE CUATRO",-20.2307033,-70.1356692
"IQUIQUE, J.J.PEREZ, AVDA. H. DE LA CONCEPCION",-20.2307033,-70.1356692
"IQUIQUE, AVDA. P. PRADO, PLAYA EL AGUILA",-20.25145,-70.1319383
"IQUIQUE, AVDA. PEDRO PRADO, 2547",-20.2360183,-70.1377232
"IQUIQUE, TOMAS BONILLA, ESPAÑA",-20.2307033,-70.1356692
"IQUIQUE, AVDA. LA TIRANA, AVDA. CIRCUNVALACION",-20.231349,-70.1284471
"ALTO HOSPICIO, LA PAMPA, 3479",-20.2686722,-70.1049169
"IQUIQUE, OSCAR BONILLA, MOISES GONZALEZ",-20.2099445,-70.1398778
"ALTO HOSPICIO, LOS AROMOS, SIETE",-20.2556598,-70.1069637
"IQUIQUE, AVDA. M. BULNES, AVDA. P. PRADO",-20.2201814,-70.1349026
"IQUIQUE, BARROS ARANA, TARAPACA",-20.2175833,-70.1474318
"IQUIQUE, AVDA. ARTURO PRAT, AVDA. DIEGO PORTALES",-20.2307033,-70.1356692
"IQUIQUE, ORELLA, 21 DE MAYO",-20.2208923,-70.1421601
"IQUIQUE, AVDA. TADEO HAENKE, AVDA. LA TIRANA",-20.2382135,-70.1286667
"IQUIQUE, RIQUELME, PJE. JUAN PORTAL",-20.2219665,-70.1383028
"IQUIQUE, SOTOMAYOR, 2141",-20.2129102,-70.1336342
"IQUIQUE, CERTARIC, SALITRERA VICTORIA",-20.2049542,-70.1369169
"IQUIQUE, OHIGGINS, AVDA. PEDRO PRADO",-20.2193218,-70.1347013
"IQUIQUE, AVDA. HEROES DE LA CONCEPCION, AVDA. DIEGO PORTALES",-20.2301432,-70.1411798
"IQUIQUE, AVDA. LA TIRANA, AVDA CHIPANA",-20.2518219,-70.1260999
"IQUIQUE, GENARO GALLO, LOS GLADIOLOS",-20.2334817,-70.1379182
"IQUIQUE, AVDA. HEROES DE LA CONCEPCION, TOMAS BONILLA",-20.2276843,-70.1402925
"IQUIQUE, AVDA. BULNES, ARTURO FERNANDEZ",-20.2196748,-70.1443406
"ALTO HOSPICIO, COSTANERA, 2952",-20.2686722,-70.1049169
"ALTO HOSPICIO, LOS CONDORES, 3733",-20.273741,-70.0992632
"IQUIQUE, LIBERTAD, GENARO GALLO",-20.2289249,-70.137476
"IQUIQUE, TADEO HAENKE, LA TIRANA",-20.2404198,-70.1372473
"ALTO HOSPICIO, EL SALITRE, LOS AROMOS",-20.2556598,-70.1069637
"IQUIQUE, GENARO GALLO, JOSE MIGUEL CARRERA",-20.2268367,-70.1372722
"IQUIQUE, AVDA. LA TIRANA, PROGRESO",-20.2543166,-70.1260602
"ALTO HOSPICIO, LOS AROMOS, 29",-20.2556598,-70.1069637
"ALTO HOSPICIO, JERUSALEM, 7",-20.2471343,-70.1029019
"IQUIQUE, PAMPA ENGAÑADORA, 2982",-20.2446612,-70.1340292
"IQUIQUE, SANTIAGO POLANCO, AVDA. PEDRO PRADO",-20.2468369,-70.1329274
"IQUIQUE, PEDRO GAMBONI, ANKEL NIELSER",-20.2307033,-70.1356692
"IQUIQUE, LATORRE, GENARO GALLO",-20.2175783,-70.1361277
"ALTO HOSPICIO, LOS PARRONES, LOS POMELOS",-20.2634645,-70.1013358
"IQUIQUE, RIQUELME, ARTURO FERNANDEZ",-20.2187948,-70.1443066
"IQUIQUE, AVDA. FCO. BILBAO, PLAYA  EL AGUILA",-20.251327,-70.1314193
"ALTO HOSPICIO, RAMON PEREZ OPAZO, LOS CONDORES",-20.2686722,-70.1049169
"IQUIQUE, AVDA. H. DE LA CONCEPCION, TADEO HANKE",-20.2307033,-70.1356692
"ALTO HOSPICIO, ESMERALDA, LOS GUINDALES",-20.266942,-70.1070489
"IQUIQUE, AVDA. FCO. BILBAO, CALLE 2",-20.2617337,-70.1290955
"IQUIQUE, AMUNATEGUI, VIDELA",-20.2102988,-70.145802
"IQUIQUE, 18 DE SEPTIEMBRE, SAN MARTIN",-20.2307033,-70.1356692
"ALTO HOSPICIO, LOS AROMOS, LOS POMELOS",-20.2648604,-70.1025795
"IQUIQUE, AVDA. FCO. BILBAO, MOTEL FLAMENCO",-20.2617337,-70.1290955
"ALTO HOSPICIO, LOS AROMOS, 29",-20.2556598,-70.1069637
"ALTO HOSPICIO, CALLE SIETE, PASAJE 17",-20.2951378,-70.1064321
"IQUIQUE, MANUEL BULNES, SALVADOR ALLENDE",-20.2201543,-70.1353452
"IQUIQUE, 21 DE MAYO, BOLIVAR",-20.2307033,-70.1356692
"ALTO HOSPICIO, LOS ALAMOS, LOS PERALES",-20.2663718,-70.1002038
"ALTO HOSPICIO, LOS ALAMOS, LOS ALMENDROS",-20.2665891,-70.1018295
"POZO ALMONTE, PAMPA GERMANIA/ALDUNATE, 0",-20.2613588,-69.7846368
"IQUIQUE, AVDA. PADRE HURTADO, AVDA. ARTURO PRAT",-20.2625059,-70.130789
"IQUIQUE, AVDA. HEROES DE LA CONCEPCION, INTERIOR ESTACIONAMIENTOS MALL LAS AMERICAS",-20.2327283,-70.1427897
"ALTO HOSPICIO, LA PAMPA, RAMON PEREZ OPAZO",-20.2686722,-70.1049169
"IQUIQUE, ARTURO FERNANDEZ, ZEGERS",-20.2307033,-70.1356692
"IQUIQUE, THOMPSON, 12 DE FEBRERO",-20.2154172,-70.1410495
"ALTO HOSPICIO, LOS CONDORES, 3330",-20.2709877,-70.1064781
"ALTO HOSPICIO, GABRIELA MISTRAL, CARMELA CARVAJAL",-20.2806769,-70.1037814
"ALTO HOSPICIO, RAMON PEREZ OPAZO, LOS ALAMOS",-20.2666181,-70.1028585
"ALTO HOSPICIO, GABRIELA MISTRAL, ARGENTINA",-20.2686722,-70.1049169
"IQUIQUE, AVDA. PEDRO PRADO, MANUEL BULNES",-20.2201814,-70.1349026
"IQUIQUE, TARAPACA, 18 DE SEPTIEMBRE",-20.2146045,-70.1429999
"ALTO HOSPICIO, SANTA ROSA, SANTA JIMENA",-20.2783619,-70.0963835
"ALTO HOSPICIO, LOS AROMOS, 2926",-20.2559988,-70.1060403
"IQUIQUE, PATRICIO LYNCH, ESMERALDA",-20.2154369,-70.1513951
"IQUIQUE, SERRANO, ANIBAL PINTO",-20.2131798,-70.1528114
"IQUIQUE, PLAYA EL AGUILA, CERRO DRAGON",-20.2507313,-70.1286646
"ALTO HOSPICIO, ESMERALDA, 2929",-20.2675379,-70.106609
"ALTO HOSPICIO, LOS ALAMOS, 3870",-20.2589041,-70.085399
"IQUIQUE, AVDA. LATIRANA, 2860",-20.238235,-70.1285649
"ALTO HOSPICIO, LOS AROMOS, CALLE UNO",-20.2686722,-70.1049169
"IQUIQUE, ERRAZURIZ, 953",-20.2174104,-70.1437565
"ALTO HOSPICIO, SALITRERA PROGRESO, CIRCUNVALACION",-20.2797076,-70.1041736
"ALTO HOSPICIO, PAMPA PERDIZ, RAMON PEREZ OPAZO",-20.2719297,-70.0999454
"IQUIQUE, CENTENARIO, PUERTA 7 ZOFRI",-20.2076084,-70.1426511
"ALTO HOSPICIO, VALPARAISO, 15",-20.2782352,-70.0838444
"IQUIQUE, ELEUTERIO RAMIREZ, AVDA. BERNARDO OHIGGINS",-20.2184918,-70.1494876
"ALTO HOSPICIO, LOS AVELLANOS, LOS DAMASCOS",-20.2665772,-70.1067161
"IQUIQUE, SOTOMAYOR, JUAN MARTINEZ",-20.2109821,-70.1445867
"IQUIQUE, ESTACIONAMIENTO, INTERIOR MALL ZOFRI",-20.2051079,-70.1383784
"ALTO HOSPICIO, LAS AMERICAS, SANTA MARIA",-20.2847174,-70.1022289
"IQUIQUE, ORELLA, 18 DE SEPTIEMBRE",-20.2208235,-70.1432206
"IQUIQUE, PLAYA EL AGUILA, 2466",-20.2506757,-70.1290913
"ALTO HOSPICIO, LA PAMPA, SANTA ROSA",-20.2686722,-70.1049169
"IQUIQUE, TARAPACA, BARROS ARANA",-20.2175833,-70.1474318
"ALTO HOSPICIO, LAS AMERICAS, 3919",-20.2805623,-70.1009959
"IQUIQUE, LUIS JASPARD, PUERTA NRO. 12 ZOFRI",-20.2111272,-70.1362149
"ALTO HOSPICIO, LOS AROMOS, 29",-20.2556598,-70.1069637
"IQUIQUE, RANCAGUA, PJE. SALITRERA CONSTANCIA",-20.2458034,-70.1314119
"ALTO HOSPICIO, AVDA. LOS ALAMOS, AVDA. LOS AROMOS",-20.2662507,-70.1025442
"IQUIQUE, AVDA. A. PRAT, SANTIAGO POLANCO",-20.2484469,-70.1381101
"IQUIQUE, PATRICIO LYNCH, BOLIVAR",-20.2121701,-70.1513327
"ALTO HOSPICIO, AVDA. LOS AROMOS, PJE. CINCO",-20.273488,-70.0931295
"IQUIQUE, CAMPO DEPORTES, PEDRO PRADO",-20.2225972,-70.1350708
"ALTO HOSPICIO, AVDA. ESMERALDA, AVDA. LA PAMPA",-20.2708561,-70.1023597
"IQUIQUE, AVDA. AEROPUERTO, LOS LIRIOS",-20.2307033,-70.1356692
"IQUIQUE, SANTA CRUZ, MAPOCHO",-20.2307033,-70.1356692
"IQUIQUE, AVDA. PEDRO PRADO, MANUEL CASTRO RAMOS",-20.244863,-70.1334046
"ALTO HOSPICIO, AV. LAS AMERICAS, AV. SANTA MARIA",-20.2847174,-70.1022289
"IQUIQUE, AVDA. CERRO DRAGON, CALLE 5",-20.2455526,-70.1292691
"IQUIQUE, ISLUGA, 4129",,
"IQUIQUE, ORELLA, 12 DE FEBRERO",-20.220917,-70.1415272
"ALTO HOSPICIO, AV. LA PAMPA, PJE. RINCONADA",-20.2704188,-70.1013379
"IQUIQUE, CESPEDES GONZALEZ, AMUNATEGUI",-20.2244134,-70.14698
"IQUIQUE, CESPEDES GONZALEZ, GALVARINO GUERRA",-20.2249719,-70.1360341
"ALTO HOSPICIO, CALLE LOS PARRONES, CALLE LOS ALAMOS",-20.2634645,-70.1013358
"IQUIQUE, JOSE MIGUEL CARRERA, AVDA. CIRCUNVALACION",-20.2266274,-70.1421023
"ALTO HOSPICIO, CALLE ESMERALDA, 3542",-20.271009,-70.101805
"IQUIQUE, AVDA. CIRCUNVALACION, MANAZANA F ZOFRI",-20.2307033,-70.1356692
"ALTO HOSPICIO, CALLE DOS, 3334",-20.2737367,-70.1073883
"IQUIQUE, AVDA. H. DE LA CONCEPCION, CESPEDES GONZALEZ",-20.2307033,-70.1356692
"ALTO HOSPICIO, AV. RAMON PEREZ OPAZO, 2924",-20.2652056,-70.1042847
"IQUIQUE, ARMADA DE CHILE, AVDA. PEDRO PRADO",-20.2396655,-70.1345536
"ALTO HOSPICIO, AV. RAMON PEREZ OPAZO, AV. LOS CONDORES",-20.272945,-70.1005126
"ALTO HOSPICIO, LOS MANGOS, 2832",-20.2642381,-70.1081999
"ALTO HOSPICIO, CALLE UNO, PJE. 6",-20.2597341,-70.104613
"IQUIQUE, MANUEL BULNES, AVDA. PEDRO PRADO",-20.2201814,-70.1349026
"ALTO HOSPICIO, AV. RAMON PEREZ OPAZO, AV. LA PAMPA",-20.2700618,-70.100866
"ALTO HOSPICIO, CALLE DOS, 3215",-20.2728247,-70.1091535
"IQUIQUE, AVDA. HEROES DE LA CONCEPCION, 2555",-20.2321618,-70.1426336
"ALTO HOSPICIO, CALLE LOS AROMOS, PJE. TRES",-20.25608,-70.1062971
"IQUIQUE, AMUNATEGUI, VIDELA",-20.2102988,-70.145802
"IQUIQUE, MANUEL BULNES, ORELLA",-20.2307033,-70.1356692
"IQUIQUE, AVDA. ARTURO PRAT, PLAYA CHIPANA",-20.2484469,-70.1381101
"IQUIQUE, RAMIREZ, CESPEDES GONZALEZ",-20.2243019,-70.1497478
"IQUIQUE, JUAN MARTINEZ, TOMAS BONILLA",-20.2274454,-70.1461888
"IQUIQUE, GENARO GALLO, LAS ROZAS",-20.2373067,-70.139562
"ALTO HOSPICIO, CALLE 9, PJE. 36",-20.288148,-70.1002356
"IQUIQUE, AVDA. ARTURO PRAT, TOMAS BONILLA",-20.2273588,-70.1480139
"ALTO HOSPICIO, AV. LOS AROMOS, AV. LOS ALAMOS",-20.2662507,-70.1025442
"ALTO HOSPICIO, CALLE GABRIELA MISTRAL, PJE. GUINEA",-20.2896028,-70.1064049
"IQUIQUE, VIVAR, THOMPSON",-20.2148742,-70.1485661
"IQUIQUE, LAS ROSAS, GENARO GALLO",-20.2373067,-70.139562
"IQUIQUE, CESPEDES GONZALEZ, ARTURO PEREZ CANTO",-20.2248356,-70.1380641
"ALTO HOSPICIO, CALLE TILIVICHI, LAS AVELLANAS",-20.2701428,-70.1084922
"IQUIQUE, JUAN MARTINEZ, THOMPSON",-20.2307033,-70.1356692
"ALTO HOSPICIO, AV. LAS AMERICAS, CALLE CANADA",-20.2686722,-70.1049169
"IQUIQUE, VIVAR, 1247",-20.2199097,-70.149162
"IQUIQUE, AVDA. ARTURO PRAT, DIEGO PORTALES",-20.2307033,-70.1356692
"ALTO HOSPICIO, CALLE ALEMANIA, CALLE SUIZA",-20.2686722,-70.1049169
"IQUIQUE, LAGUNA VERDE, 3157",-20.2472743,-70.1250194
"ALTO HOSPICIO, AV. LOS ALAMOS, AV. LOS CONDORES",-20.2705889,-70.1068267
"ALTO HOSPICIO, AV. RAMON PEREZ OPAZO, AV. LA PAMPA",-20.2700618,-70.100866
"IQUIQUE, SOTOMAYOR, 700",-20.2104838,-70.1484976
"ALTO HOSPICIO, AV. LOS ALAMOS, PJE. UNO",-20.2662507,-70.1025442
"ALTO HOSPICIO, LOS KIWIS, 2904",-20.2659114,-70.1057871
"IQUIQUE, AVDA. PLAYA BRAVA, INTERIOR SERVICENTRO SHELL",-20.242199,-70.142499
"ALTO HOSPICIO, LOS DATILES, LOS NOGALES",-20.2620837,-70.1037992
"POZO ALMONTE, BALMACEDA S/N, 0",-20.2570503,-69.7857064
"ALTO HOSPICIO, PJE. ISABEL RIQUELME, AVDA. LAS AMERICAS",-20.2824421,-70.10138
"IQUIQUE, SALITRERA VICTORIA, SANTA CRUZ",-20.2049658,-70.1357505
"IQUIQUE, AVDA. PEDRO PRADO, AVDA. CHIPANA",-20.2396655,-70.1345536
"IQUIQUE, ARTURO PEREZ CANTO, MANUEL RODRIGUEZ",-20.2238191,-70.1379526
"ALTO HOSPICIO, LOS CONDORES, TARAPACA",-20.2686722,-70.1049169
"ALTO HOSPICIO, A-616, AVDA. QUINCE",-20.2513639,-70.0977749
"IQUIQUE, MANUEL BULNES, JUAN MARTINEZ",-20.219616,-70.1454426
"IQUIQUE, AVDA. ARTURO PRAT, SAGASCA",-20.245836,-70.1401573
"ALTO HOSPICIO, AVDA. LOS ALAMOS, CALLE TILIVICHE",-20.2711253,-70.1077139
"ALTO HOSPICIO, CATALINA DE LOS RIOS, MARCELA PAZ",-20.281341,-70.1020065
"ALTO HOSPICIO, LOS AROMOS, VITERBIO ACEITUNO",-20.2686722,-70.1049169
"ALTO HOSPICIO, LA PAMPA, SALITRERA TORDOYA",-20.2782814,-70.098854
"IQUIQUE, AVDA. ARTURO PRAT, ROTONDA CAVANCHA",-20.2330224,-70.1469024
"IQUIQUE, TARAPACA, VIVAR",-20.218536,-70.1488892
"ALTO HOSPICIO, LOS AROMOS, SAN FRANCISCO",-20.2786793,-70.0901496
"ALTO HOSPICIO, LOS PEPINOS, LOS AROMOS",-20.2556598,-70.1069637
"ALTO HOSPICIO, LOS AROMOS, LAGUNAS",-20.2556598,-70.1069637
"ALTO HOSPICIO, ELOIZA DIAZ, 3010",-20.2832345,-70.1026805
"POZO ALMONTE, ALIANZA/STA LAURA, 0",-20.2570503,-69.7857064
"IQUIQUE, AVDA. LA TIRANA, PARQUE EL SENDERO",-20.2543166,-70.1260602
"IQUIQUE, TADEO HAENKE, AVDA. CERRO DRAGON",-20.2386682,-70.1296108
"ALTO HOSPICIO, NACIONES UNIDAS, GLADYS MARIN",-20.2686722,-70.1049169
"IQUIQUE, AVDA. LA TIRANA, CALLE 6",-20.2543166,-70.1260602
"IQUIQUE, ANIBAL PINTO, ZEGERS",-20.2171191,-70.1529907
"ALTO HOSPICIO, RANCAGUA, 14",-20.2792621,-70.0851252
"IQUIQUE, PATRICIO LYNCH, SOTOMAYOR",-20.2154369,-70.1513951
"IQUIQUE, CESPEDES GONZALEZ, ARTURO FERNANDEZ",-20.2245126,-70.1445436
"IQUIQUE, THOMPSON, GENARO GALLO",-20.2157202,-70.135764
"ALTO HOSPICIO, LAS PARCELAS, 4",-20.2686722,-70.1049169
"IQUIQUE, TARAPACA, BARROS ARANA",-20.2175833,-70.1474318
"IQUIQUE, ANIBAL PINTO, SAN MARTIN",-20.2167578,-70.1528862
"ALTO HOSPICIO, LOS TAMARUGOS, LOS ALMENDROS",-20.2678645,-70.1010891
"IQUIQUE, PLAYA EL AGUILA, AVDA. PEDRO PRADO",-20.25145,-70.1319383
"IQUIQUE, PEDRO GAMBONI, LAS ROZAS",-20.2382195,-70.1367007
"ALTO HOSPICIO, NACIONES UNIDAS, MACHALI",-34.1793831,-70.6545835
"ALTO HOSPICIO, COSTANERA, 2956",-20.2686722,-70.1049169
"ALTO HOSPICIO, LAS AMERICAS, SETENTA Y SIETE",-20.2944257,-70.1017501
"IQUIQUE, PLAYA EL AGUILA, AVDA. PEDRO PRADO",-20.25145,-70.1319383
"IQUIQUE, THOMPSON, 741",-20.2151642,-70.1450982
"IQUIQUE, COLOCOLO, BERNARDINO GUERRA",-20.2296258,-70.1370293
"ALTO HOSPICIO, CATORCE, QUINCE",-20.2686722,-70.1049169
"IQUIQUE, GENARO GALLO, TOMAS BONILLA",-20.2278116,-70.1373664
"ALTO HOSPICIO, LOS AROMOS, PJE. TRES",-20.25608,-70.1062971
"IQUIQUE, VIVAR, ZEGERS",-20.2175284,-70.1487847
"IQUIQUE, BERNARDO OHIGGINS, AVDA. PEDRO PRADO",-20.2193218,-70.1347013
"IQUIQUE, AMUNATEGUI, ZEGERS",-20.2176315,-70.1465983
"ALTO HOSPICIO, SANTA PAULA, 4416",-20.2771855,-70.0934379
"IQUIQUE, AVDA. LA TIRANA, SECTOR KAMIKASE",-20.2543166,-70.1260602
"IQUIQUE, TOMAS BONILLA, PJE. MARTIN LUTERO",-20.2276758,-70.1407143
"IQUIQUE, AVDA. H. DE LA CONCEPCION, MANUEL BULNES",-20.2197049,-70.1437707
"ALTO HOSPICIO, ESMERALDA, LA PAMPA",-20.2686722,-70.1049169
"IQUIQUE, AVDA. CIRCUNVALACION, SALITRERA VICTORIA",-20.2048845,-70.131308
"ALTO HOSPICIO, CERRO HERMOSO, 20",-20.2722624,-70.0863221
"ALTO HOSPICIO, CIRCUNVALACION, SAN DONATO",-20.2798646,-70.1055245
"IQUIQUE, AVDA. HEROES DE LA CONCEPCION, HONCENTER SODIMAC",-20.2312393,-70.1420364
"ALTO HOSPICIO, LOS AROMOS, 29",-20.2556598,-70.1069637
"ALTO HOSPICIO, TALCA, 4525",-20.2686722,-70.1049169
"IQUIQUE, AVDA. ANIBAL PINTO, ESTACIONAMIENTO PLAZA PRAT",-20.2134563,-70.1527113
"IQUIQUE, AVDA. LA TIRANA, CASTRO RAMOS",-20.2444412,-70.1282904
"IQUIQUE, JOSE JOAQUIN PEREZ, ARTURO FERNANDEZ",-20.2225978,-70.1444612
"ALTO HOSPICIO, RAMON PEREZ OPAZO, CHACA",-20.2692348,-70.1013055
"ALTO HOSPICIO, LAS AMERICAS, CUBA",-20.2901059,-70.1042119
"ALTO HOSPICIO, ALTO MOLLE, 3344",-20.2789234,-70.1024178
"IQUIQUE, RANCAGUA, PLAYA BLANCA",-20.2485799,-70.1307633
"IQUIQUE, AVDA. ARTURO PRAT, FTE. UNIVESIDAD ARTURO PRAT",-20.2440491,-70.1405831
"ALTO HOSPICIO, LAS AMERICAS, ISABEL RIQUELME",-20.2824421,-70.10138
"ALTO HOSPICIO, TILIVICHE, LOS ALAMOS",-20.2686722,-70.1049169
"ALTO HOSPICIO, LOS CONDORES, LOS ALAMOS",-20.2702639,-70.1068711
"IQUIQUE, AVDA. COSTANERA, PADRE HURTADO",-20.2624937,-70.1305745
"IQUIQUE, TARAPACA, OSCAR BONILLA",-20.2194645,-70.1403842
"IQUIQUE, GENARO GALLO, 5TA. SUR.",-20.2289249,-70.137476
"ALTO HOSPICIO, LOS NOGALES, 2829",-20.2619916,-70.1040999
"IQUIQUE, PATRICIO LINCH, SIMON BOLIVAR",-20.2121701,-70.1513327
"IQUIQUE, SERRANO, ARTURO FERNANDEZ",-20.2138472,-70.1440474
"IQUIQUE, AVDA. PRAT, FTE. CASINO DE JUEGOS",-20.2307033,-70.1356692
"IQUIQUE, CESPEDES GONZALEZ, 9NO. ORIENTE",-20.2246339,-70.1419103
"ALTO HOSPICIO, LOS ALAMOS, 3163",-20.2606586,-70.0939967
"IQUIQUE, AVDA. ARTURO PRAT, RECINTO AMURALLADO ZOFRI",-20.2070696,-70.1358118
"IQUIQUE, AVDA. ARTURO PRAT, AVDA. RAMON PEREZ OPAZO",-20.2529611,-70.1287904
"IQUIQUE, AVDA. HEROES DE LA CONCEPCION, SGTO. ALDEA",-20.2163207,-70.1391357
"IQUIQUE, AVDA. LA TIRANA, CAMPO DEPORTES",-20.227256,-70.1298393
"IQUIQUE, AVDA. ARTURO PRAT, UNIVERSIDAD ARTURO PRAT",-20.2440491,-70.1405831
"ALTO HOSPICIO, SANTA MARIA, 3138",-20.284089,-70.0996167
"ALTO HOSPICIO, LAS AMERICAS, SANTA MARIA",-20.2847174,-70.1022289
"IQUIQUE, GOROSTIAGA, PATRICIO LYNCH",-20.2158858,-70.1514135
"IQUIQUE, PATRICIO LYNCH, BOLIVAR",-20.2121701,-70.1513327
"ALTO HOSPICIO, LAS AMERICAS, PANAMA",-20.2686722,-70.1049169
"ALTO HOSPICIO, LOS AROMOS, 4175",-20.2563991,-70.1063047
"IQUIQUE, OBISPO LABBE, ESMERALDA",-20.2115341,-70.1502028
"IQUIQUE, DIEGO PORTALES, AVDA,  ARTURO PRAT",-20.244478,-70.1410328
"ALTO HOSPICIO, LOS CONDORES, EL SALITRE",-20.2739149,-70.0980748
"ALTO HOSPICIO, LA PAMPA, LOS KIWIS",-20.2686722,-70.1049169
"ALTO HOSPICIO, LOS AROMOS, ANGEL PRIETO",-20.2754204,-70.0909824
"ALTO HOSPICIO, JERUSALEM, AVDA. QUINCE",-20.2468075,-70.0983615
"IQUIQUE, SERRANO, GENARO GALLO",-20.2143024,-70.1356587
"ALTO HOSPICIO, AVDA. UNO, LOS AROMOS",-20.2556598,-70.1069637
"IQUIQUE, LATORRE, JUAN MARTINEZ",-20.2169534,-70.1451921
"IQUIQUE, AVDA. HEROES DE LA CONCEPCION, LOS LIRIOS",-20.2265534,-70.1400001
"IQUIQUE, AVDA. SALVADOR ALLENDE, AVDA. RAMON PEREZ OPAZO",-20.2542691,-70.1314071
"ALTO HOSPICIO, NACIONES UNIDAS, JAPON",36.204824,138.252924
"IQUIQUE, ARTURO FERNANDEZ, CESPEDES GONZALEZ",-20.2245126,-70.1445436
"IQUIQUE, SECTOR LA PENINSULA CAVANCHA, CAPITAN  ROBERTO PEREZ",-20.2356112,-70.1527077
"IQUIQUE, 18 DE SEPTIEMBRE, LIBERTAD",-20.2307033,-70.1356692
"IQUIQUE, AVDA. AEROPUERTO, TADEO HAENKE",-20.2307033,-70.1356692
"IQUIQUE, AVDA. ARTURO PRAT, SERVICENTRO SHELL",-20.2307033,-70.1356692
"IQUIQUE, HEROES DE LA CONCEPCION, LAS ROSAS",-20.2355112,-70.143292
"ALTO HOSPICIO, AV. LOS AROMOS, 4465",-20.2832629,-70.0872867
"ALTO HOSPICIO, AV, GABRIELA MISTRAL, RIO MAULLIN",-20.2909546,-70.1069516
"ALTO HOSPICIO, AV. NACIONES UNIDAS, CALLE CHINA",-20.2939791,-70.0998308
"IQUIQUE, ZEGERS, AMUNATEGUI",-20.2176315,-70.1465983
"ALTO HOSPICIO, CALLE LOS GUINDALES, CALLE LOS MANGOS",-20.2686722,-70.1049169
"IQUIQUE, 18 DE SEPTIEMBRE, SAN MARTIN",-20.2307033,-70.1356692
"ALTO HOSPICIO, LOS CONDORES, PEÑA CHICA",-20.2712936,-70.1059573
"ALTO HOSPICIO, LA PAMPA, DOS",-20.2686722,-70.1049169
"ALTO HOSPICIO, PAULA JARAQUEMADA, LAURA VICUÑA",-20.2829309,-70.1020811
"ALTO HOSPICIO, RICARDO LAGOS ESCOBAR, 4242",-20.2686722,-70.1049169
"IQUIQUE, AVDA. PLAYA BRAVA, MANUEL PLAZA",-20.2479851,-70.1368551
"ALTO HOSPICIO, VICENTE PEREZ ROSALES, 3002",-20.2686722,-70.1049169
"IQUIQUE, GENARO GALLO, TOMAS BONILLA",-20.2278116,-70.1373664
"IQUIQUE, AVDA. ARTURO PRAT, TOMAS BONILLA",-20.2273588,-70.1480139
"IQUIQUE, PUERTA NRO. 5, ZOFRI",-20.206958,-70.1404458
"ALTO HOSPICIO, SANTA ROSA, TILIVICHE",-20.2725782,-70.1064197
"IQUIQUE, AVDA. HEROES DE LA CONCEPCION, FRENTE FALABELLA",-20.232091,-70.1425401
"IQUIQUE, AVDA. MANUEL BULBNES, 21 DE MAYO",-20.219804,-70.1421126
"IQUIQUE, PATRICIO LYNCH, AVDA. ARTUTO PRAT",-20.223043,-70.1515888
"IQUIQUE, LAGUNA VERDE, PLAYA BLANCA",-20.2463704,-70.1253627
"ALTO HOSPICIO, CALLLE DOS, PJE. NUEVE",-20.2453796,-70.0988151
"ALTO HOSPICIO, GABRIELA MISTRAL, PAULA JARAQUEMADA",-20.2822965,-70.1038013
"ALTO HOSPICIO, DELAWARE, QUINCE",-20.2686722,-70.1049169
"ALTO HOSPICIO, LOS TAMARUGOS, LOS ALMENDROS",-20.2678645,-70.1010891
"ALTO HOSPICIO, LOS ALAMOS, LOS NOGALES",-20.2646179,-70.1005485
"IQUIQUE, AVDA. ARTURO PRAT, SEVICENTRO COPEC",-20.244478,-70.1410328
"ALTO HOSPICIO, LOS AROMOS, LOS DATILES",-20.2602461,-70.1029932
"IQUIQUE, AVDA. ARTURO PRAT, SAGASCA",-20.245836,-70.1401573
"IQUIQUE, GENARO GALLO, LAS ROZAS",-20.2373067,-70.139562
"ALTO HOSPICIO, CIRCUNVALACION, LOS ALAMOS",-20.2686722,-70.1049169
"IQUIQUE, THOMPSON, AVDA. HEROES DE LA CONCEPCION",-20.215546,-70.1390644
"IQUIQUE, AVDA. ARTURO PRAT, PLANTA REVISION TECNICA",-20.244478,-70.1410328
"ALTO HOSPICIO, FRANCIA, GLADYS MARIN",-20.2686722,-70.1049169
"ALTO HOSPICIO, SANTA INES, 4277",-20.2686722,-70.1049169
"IQUIQUE, AVDA. HEROES DE LA CONCEPCION, SGTO. ALDEA",-20.2163207,-70.1391357
"IQUIQUE, DOCE FEBRERO, 1359",-20.221422,-70.1416947
"IQUIQUE, AVDA. LA TIRANA, CASTRO RAMOS",-20.2444412,-70.1282904
"ALTO HOSPICIO, LOS CONDORES, SALITRERA IRIS",-20.2736111,-70.0990675
"IQUIQUE, AVDA. PEDRO PRADO, DIEGO PORTALES",-20.2307248,-70.1356851
"ALTO HOSPICIO, PASTOR JUAN RETAMAL, CONTINENTAL",-20.2867819,-70.1018154
"IQUIQUE, PRAT, 393",-20.2127394,-70.1402577
"IQUIQUE, bulnes, 321",-20.2194203,-70.1519528
"IQUIQUE, OBISPO LABBE, JOSE JOAQUIN PEREZ",-20.222372,-70.1505418
"ALTO HOSPICIO, LOS NOGALES, LOS DATILES",-20.2620837,-70.1037992
"IQUIQUE, SOTOMAYOR, OSCAR BONILLA",-20.2111121,-70.1399327
"ALTO HOSPICIO, CALLE NUEVE, PJE. 38",-20.2893552,-70.1050349
"IQUIQUE, AVDA. TADEO HAENKE, MARISCAL CASTILLO",-20.2397719,-70.1392352
"IQUIQUE, LA   ISLA, RECINTO AMURALLADO ZOFRI",-20.2070696,-70.1358118
"IQUIQUE, AVDA. ARTURO PRAT, 3246",-20.2499526,-70.1371264
"ALTO HOSPICIO, VOLCAN ISLUGA, VOLCAN OJOS DEL SALADO",-20.2891838,-70.0919527
"HUARA, DONATO SANELLI, 12",-19.9966485,-69.7676215
"IQUIQUE, AVDA. TADEO HAENKE, FRANCISCO BILBAO",-20.2404198,-70.1372473
"IQUIQUE, AVDA.  ARTURO PRAT, TERESA WILLMONT",-20.2307033,-70.1356692
"IQUIQUE, SOTOMAYOR, OSCAR BONILLA",-20.2111121,-70.1399327
"IQUIQUE, AVDA. FRANCISCO BILBAO, CERRO COLORADO",-20.2307033,-70.1356692
"ALTO HOSPICIO, CARMELA CARVAJAL, GABRIELA MISTRAL",-20.2686722,-70.1049169
"IQUIQUE, ZEGERS, BAQUEDANO",-20.2173073,-70.1520816
"ALTO HOSPICIO, LOS CONDORES, AV. LA PAMPA",-20.2720767,-70.1028957
"IQUIQUE, PATRICIO LYNCH, BOLIVAR",-20.2121701,-70.1513327
"IQUIQUE, SALITRERA VICTORIA, SERVICENTRO COPEC",-20.2049542,-70.1369169
"ALTO HOSPICIO, CATORCE, QUINCE",-20.2686722,-70.1049169
"ALTO HOSPICIO, CALLE SANTA ROSA, CALLE TILIVICHE",-20.2770696,-70.1076069
"IQUIQUE, AVDA.  CIRCUNVALACION, SOTOMAYOR",-20.2134898,-70.1310453
"ALTO HOSPICIO, LOS AROMOS, LOS GUINDALES",-20.2611428,-70.102019
"ALTO HOSPICIO, LOS AROMOS, LOS DATILES",-20.2602461,-70.1029932
"IQUIQUE, AVDA. ARTURO PRAT, SAGASCA",-20.245836,-70.1401573
"IQUIQUE, CESPEDES GONZALEZ, ARTURO FERNANDEZ",-20.2245126,-70.1445436
"IQUIQUE, AVDA. LA TIRANA, SANTA ELENA",-20.2543166,-70.1260602
"IQUIQUE, SOTOMAYOR, 1428",-20.21098,-70.14104
"ALTO HOSPICIO, ALEMANIA, GLADIS MARIN",-20.2686722,-70.1049169
"IQUIQUE, PATRICIO LYNCH, RIQUELME",-20.2212074,-70.1515192
"IQUIQUE, AVDA. TADEO HAENKE, GENARO GALLO",-20.2394749,-70.1403552
"IQUIQUE, PLAYA GAVIOTA, AVDA. PLAYA BRAVA",-20.2507676,-70.1361806
"ALTO HOSPICIO, GLADYS MARIN, SINGAPUR",-20.2920856,-70.1013987
"IQUIQUE, AVDA. ARTURO PRAT, AMUNATEGUI",-20.2067534,-70.1452669
"IQUIQUE, AVDA. ARTURO PRAT, LOS MOLLES",-20.244478,-70.1410328
"ALTO HOSPICIO, LOS AROMOS, SANTA TERESA",-20.2804238,-70.0889046
"IQUIQUE, DIEGO PORTALES, ARTURO FERNANDEZ",-20.2293279,-70.1447649
"ALTO HOSPICIO, LOS AROMOS, 2637",-20.2575093,-70.105572
"IQUIQUE, AVDA. CIRCUNVALACION, ROTONDA EL PAMPINO",-20.2208561,-70.1319844
"IQUIQUE, LAS MONTAÑAS, FTE. PUERTA NRO. 11 ZOFRI",-20.206958,-70.1404458
"IQUIQUE, PATRICIO LYNCH, SIMON BOLIVAR",-20.2121701,-70.1513327
"ALTO HOSPICIO, LOS AROMOS, 4039",-20.2563991,-70.1063047
"ALTO HOSPICIO, VOLCAN OJOS DEL SALADO, VOLCAN LICANCABUR",-20.2887768,-70.0930088
"ALTO HOSPICIO, LOS ALAMOS, LOS CONDORES",-20.2686722,-70.1049169
"IQUIQUE, THOMPSON, VIVAR",-20.2148742,-70.1485661
"ALTO HOSPICIO, TARAPACA, 3350",-20.2686722,-70.1049169
"IQUIQUE, JUAN MARTINEZ, SIMON  BOLIVAR",-20.212405,-70.1447866
"ALTO HOSPICIO, RICARDO LABOS ESCOBAR, LAS PARCELAS",-34.345965,-58.7953449
"IQUIQUE, AVDA. H. DE LA CONCEPCION, ZEGERS",-20.2307033,-70.1356692
"IQUIQUE, AVDA. LA TIRANA, PASAJE 01",-20.2543166,-70.1260602
"ALTO HOSPICIO, VIA TRONCAL, LOS AROMOS",-20.2556598,-70.1069637
"IQUIQUE, SOTOMAYOR, PATRICIO LYNCH",-20.2109436,-70.151012
"IQUIQUE, LAS CABRAS, IQUITADOS",-20.2082658,-70.139819
"ALTO HOSPICIO, MEXICO, NACIONES UNIDAS",23.634501,-102.552784
"IQUIQUE, AVDA. H. DE LA CONCEPCION, MANUEL BULNES",-20.2197049,-70.1437707
"IQUIQUE, AVDA. H. DE LA CONCEPCION, 8754",-20.2414367,-70.1342598
"ALTO HOSPICIO, LAS AMERICAS, ITALIA",-20.2936655,-70.1055504
"IQUIQUE, AVDA. A. PRAT, DESIDERIO GONZALEZ",-20.2484469,-70.1381101
"IQUIQUE, AVDA. OHIGGINS, VIVAR",-20.218536,-70.1488892
"IQUIQUE, ESMERALDA, RAMIREZ",-20.2307033,-70.1356692
"ALTO HOSPICIO, PAMPA UNION, 3668",-20.2763653,-70.1015404
"IQUIQUE, PATRICIO LYNCH, SOTOMAYOR",-20.2154369,-70.1513951
"ALTO HOSPICIO, SANTA PAULA, 4180",-20.2775631,-70.0935211
"IQUIQUE, AVENIDA ARTURO PRAT, AVENITA TADEO HAENKE",-20.2307033,-70.1356692
"IQUIQUE, AVENIDA PRAT",-20.21265,-70.1401344
"IQUIQUE, CALLE CONCEPCIÓN, CALLE MAULE",-20.2307033,-70.1356692
"ALTO HOSPICIO, CIRCUNVALACION, SAN DONATO",-20.2798646,-70.1055245
"IQUIQUE, PRESIDENTE ERRAZURIZ, BULNES",-20.2197049,-70.1437707
"ALTO HOSPICIO, CIRCUNVALACION, SANTA LAURA",-20.2686722,-70.1049169
"IQUIQUE, ELEUTERIO RAMIREZ, ALMIRANTE LATORRE",-20.2160808,-70.1493656
"IQUIQUE, ZEGERS, ARTURO FERNANDEZ",-20.2177479,-70.1442373
"ALTO HOSPICIO, GABRIELA MISTRAL, TRES",-20.2686722,-70.1049169
"ALTO HOSPICIO, SANTA ROSA, PAMPA PERDIZ",-20.2686722,-70.1049169
"ALTO HOSPICIO, LOS CONDORES, 3193",-20.2704351,-70.1070669
"ALTO HOSPICIO, LOS AROMOS, 4129",-20.2563991,-70.1063047
"IQUIQUE, LA TIRANA, 1590",-20.2241509,-70.1311961
"ALTO HOSPICIO, RICARDO LAGOS, SANTIAGO",-20.2805593,-70.0815697
"ALTO HOSPICIO, LAS AMERICAS, POLONIA",-20.2931282,-70.1051905
"IQUIQUE, ORELLA, OBISPO LABBE",-20.2203861,-70.1504462
"IQUIQUE, ARTURO PRAT CHACON, PLAYA BRAVA",-20.2416778,-70.1441063
"ALTO HOSPICIO, AVENIDA NUEVE",-20.2760016,-70.0905193
"IQUIQUE, MANAOS, 0",-20.2074055,-70.1420257
"IQUIQUE, BOLIVAR, PATRICIO LYNCH",-20.2121701,-70.1513327
"IQUIQUE, DIEGO PORTALES, PEDRO PRADO",-20.2307248,-70.1356851
"ALTO HOSPICIO, EL MIRADOR, PAMPA UNION",-20.2769852,-70.1003595
"IQUIQUE, DIEGO PRTALES, CERRO DRAGON",-20.2311904,-70.1302093
"IQUIQUE, VIVAR, ALMIRANTE",-20.218536,-70.1488892
"ALTO HOSPICIO, LOS ALAMOS, 2978",-20.2606586,-70.0939967
"IQUIQUE, LIBERTAD, JUAN MARTINEZ",-20.2193478,-70.1454167
"IQUIQUE, PATRICIO LYNCH, SOTOMAYOR",-20.2154369,-70.1513951
"IQUIQUE, HONG KONG, CHANON",-20.2307033,-70.1356692
"ALTO HOSPICIO, LOS ALAMOS, NOGALES",-20.2686722,-70.1049169
"IQUIQUE, LATORRE, ARTURO FERNANDEZ",-20.2170247,-70.1442119
"IQUIQUE, SANTIAGO POLANCO, YABRICOYA",-20.2473355,-70.1356494
"IQUIQUE, DIAGONAL BILBAO, LA TIRANA",-20.2307033,-70.1356692
"IQUIQUE, DIAGONAL BILBAO, PADRE HURTADO",-20.2616614,-70.129137
"IQUIQUE, FRANCISCO VERGARA, 3164",-20.2486394,-70.134487
"IQUIQUE, CESPEDES Y GONZALEZ, ARTURO FERNANDEZ",-20.2245126,-70.1445436
"IQUIQUE, SANTIAGO POLANCO, RANCAGUA",-20.2466747,-70.1321136
"ALTO HOSPICIO, VOLCAN LASCAR, 4934",-20.2877865,-70.0918315
"ALTO HOSPICIO, LAS AMERICAS, SANTA MARIA",-20.2847174,-70.1022289
"IQUIQUE, HEROES DE LA CONCEPCION, OHIGGINS",-20.2190716,-70.1393305
"IQUIQUE, SOTOMAYOR, JUAN MARTINEZ",-20.2109821,-70.1445867
"ALTO HOSPICIO, LOS TAMARUGOS, LOS ALMENDROS",-20.2678645,-70.1010891
"ALTO HOSPICIO, LAS AMERICAS, TRES",-20.2901059,-70.1042119
"IQUIQUE, AMUNATEGUI, VIDELA",-20.2102988,-70.145802
"IQUIQUE, PEDRO GAMBONI, LAS ROSAS",-20.2382195,-70.1367007
"IQUIQUE, THOMPSON, ARTURO FERNANDEZ",-20.2152276,-70.1441196
"IQUIQUE, AEROPUERTO, DIEGO PORTALES",-20.2307033,-70.1356692
"IQUIQUE, CESPEDES Y GONZALEZ, JUAN MARTINEZ",-20.2244564,-70.145933
"IQUIQUE, HEROES DE LA CONCEPCION, 0",-20.2113659,-70.1382217
"IQUIQUE, ARTURO FERNANDEZ, BULNES",-20.2199598,-70.1442333
"ALTO HOSPICIO, SANTA ROSA, 3652",-20.2686722,-70.1049169
"IQUIQUE, SANTIAGO POLANCO, FRANCISCO VERGARA",-20.2471645,-70.1350603
"ALTO HOSPICIO, LAS AMERICAS, ISABEL RIQUELME",-20.2824421,-70.10138
"IQUIQUE, PLAYA BRAVA, VICTOR GARRIDO",-20.242919,-70.1394306
"IQUIQUE, MANUEL RODRIGUEZ, ELEUTERIO RAMIREZ",-20.2233541,-70.1497193
"ALTO HOSPICIO, FRANCIA, GLADYS MARIN",-20.2686722,-70.1049169
"IQUIQUE, BULNES, `PATRICIO  LYNCH",-20.2192287,-70.1515497
"ALTO HOSPICIO, RAMON PEREZ OPAZO, CHACA",-20.2692348,-70.1013055
"ALTO HOSPICIO, LA GRANJA, 3349",-20.272841,-70.1010001
"IQUIQUE, BULNES, VIVAR",-20.2194358,-70.1489677
"ALTO HOSPICIO, CIRCUNVALACION, RIO AYSEN",-20.2894325,-70.1063433
"ALTO HOSPICIO, SANTA MARIA, GABRIELA MISTRAL",-20.2842259,-70.0994111
"IQUIQUE, FRANCISCO VERGARA, CHIPANA",-20.2307033,-70.1356692
"IQUIQUE, CASTRO RAMOS, RANCAGUA",-20.2445158,-70.131685
"IQUIQUE, HEROES DE LA CONCEPCION, 2727",-20.2111906,-70.1384119
"ALTO HOSPICIO, LORETO PINEDA, LAS AMERICAS",-20.2839312,-70.1019394
"IQUIQUE, SARGENTO ALDEA, PEDRO PRADO",-20.2164885,-70.1345466
"IQUIQUE, OHIGGINS, 18 DE SEPTIEMBRE",-20.2188613,-70.1431021
"IQUIQUE, ESMERALDA, BARROS ARANA",-20.2116628,-70.1470863
"ALTO HOSPICIO, GLADYS MARIN, POLONIA",-20.2942318,-70.1023919
"IQUIQUE, ARTURO PRAT, 0",-20.2043791,-70.1415324
"IQUIQUE, ZEGERS, PRESIDENTE ERRAZURIZ",-20.2177736,-70.143625
"ALTO HOSPICIO, CATALINA DE LOS RIOS, CARMELA CARVAJAL DE PRAT",-20.2802655,-70.101731
"IQUIQUE, PASTOR LORENZO PEREZ, GENARO GALLO",-20.231689,-70.1376808
"IQUIQUE, ORELLA, 18-sep",-20.2208235,-70.1432206
"IQUIQUE, TADEO HAENKE, AEROPUERTO",-20.2387359,-70.1426512
"ALTO HOSPICIO, LOS GUINDALES, PONIENTE",-20.2681193,-70.1081747
"ALTO HOSPICIO, LA PAMPA, CINCO",-20.2686722,-70.1049169
"ALTO HOSPICIO, A-616, EL ALTO",-20.2686722,-70.1049169
"IQUIQUE, OBI`SPO LABBE, MANUEL BULNES",-20.219294,-70.150411
"ALTO HOSPICIO, AFGANISTAN, CHINA",33.93911,67.709953
"IQUIQUE, SALVADOR ALLENDE, SAN AGUSTIN",-20.2171186,-70.1345786
"IQUIQUE, VICENTE ZEGERS, JUAN MARTINEZ",-20.217696,-70.1452689
"IQUIQUE, PLAYA AGUILA, PEDRO PRADO",-20.25145,-70.1319383
"IQUIQUE, ARELLA, ELEUTERIO RAMIREZ",-20.2307033,-70.1356692
"ALTO HOSPICIO, RICARDO LAGOS, LAS PARCELAS",-20.2686722,-70.1049169
"IQUIQUE, PADRE HURTADO, FRANCISCO BILBAO",-20.260932,-70.1275669
"ALTO HOSPICIO, LA PAMPA, RINCONADA",-20.2707377,-70.1011604
"ALTO HOSPICIO, LOS ALAMOS, ESMERALDA",-20.2686722,-70.1049169
"ALTO HOSPICIO, CIRCUNVALACION, 3486",-20.2772858,-70.1086041
"ALTO HOSPICIO, LA PAMPA, SAN DONATO",-20.2768172,-70.1044794
"ALTO HOSPICIO, ALEMANIA, SUECIA",60.128161,18.643501
"ALTO HOSPICIO, SANTA PAULA, SANTA GUADALUPE",-20.2760572,-70.0939356
"ALTO HOSPICIO, LOS AROMOS, VITERBO ACEITUNO",-20.2686722,-70.1049169
"IQUIQUE, CHIPANA, CERRO DRAGON",-20.2455526,-70.1292691
"IQUIQUE, CERRO DRAGON, primera piedras",-20.2416101,-70.1292154
"IQUIQUE, ARTURO PRAT, HUAIQUIQUE",-20.2887392,-70.131534
"ALTO HOSPICIO, GLADYS MARIN, ALEMANIA",-20.2925369,-70.1015671
"IQUIQUE, PROGRESO, TOMAS BONILLA",-20.2276758,-70.1407143
"ALTO HOSPICIO, LOS AROMOS, LOS ALAMOS",-20.2633566,-70.0990273
"IQUIQUE, JUAN MARTINEZ, HERNAN FUENZALIDA",-20.2285352,-70.1461119
"ALTO HOSPICIO, NANCY CASTRO, 3860",-20.2593669,-70.096087
"IQUIQUE, GOMEZ CARREÑO, PEDRO DE VALDIVIA",-20.2329027,-70.133599
"IQUIQUE, FRANCISCO BILBAO, BALMACEDA",-20.2653785,-70.126922
"ALTO HOSPICIO, SANTA MARIA, CANDELARIA PEREZ",-20.2842001,-70.099931
"ALTO HOSPICIO, CIRCUNVALACION, GUINDALES",-20.2652492,-70.1055102
"IQUIQUE, 18 DE SEPTIEMBRE, LIBERTAD",-20.2307033,-70.1356692
"ALTO HOSPICIO, LOS CONDORES, 3074",-20.2692042,-70.1076776
"ALTO HOSPICIO, AROMOS, A616",-20.2510389,-70.0928376
"IQUIQUE, TADEO HAENKE, LA TIRANA",-20.2404198,-70.1372473
"ALTO HOSPICIO, A616, QUINCE",-20.2510389,-70.0928376
"ALTO HOSPICIO, LAS PARCELAS, 3254",-20.2686722,-70.1049169
"IQUIQUE, CIRCUNVALACION, 0",-20.2853229,-70.1048561
"ALTO HOSPICIO, LA PAMPA, DOS",-20.2686722,-70.1049169
"ALTO HOSPICIO, LOS NOGALES, 3137",-20.2678263,-70.0989957
"ALTO HOSPICIO, JUANITA FERNANDEZ, LAS AMERICAS",-20.2812046,-70.1008192
"IQUIQUE, LOS PENSAMIENTOS, LAS NEVADAS",-20.2327576,-70.1368711
"IQUIQUE, PROGRESO, 0",-20.2243231,-70.1331496
"IQUIQUE, FRANCISCO BILBAO, LA TIRANA",-20.2307033,-70.1356692
"IQUIQUE, ZEGERS, OBISPO LABBE",-20.2174291,-70.1503467
"IQUIQUE, OHIGGINS, OSCAR BONILLA",-20.2190155,-70.1403408
"ALTO HOSPICIO, VOLCAN SOCOMPA, VOLCAN LICANCABUR",-20.2877865,-70.0926515
"ALTO HOSPICIO, LOS ALAMOS, 3054",-20.2589041,-70.085399
"ALTO HOSPICIO, GABRIELA MISTRAL, CARMELA CARVAJAL",-20.2806769,-70.1037814
"IQUIQUE, OHIGGINS, PEDRO PRADO",-20.2193218,-70.1347013
"IQUIQUE, CIRCUNVALACION, 0",-20.2853229,-70.1048561
"ALTO HOSPICIO, MONTE LOS OLIVOS, LAS MAGNOLIAS",-20.2686722,-70.1049169
