Direccion,LATITUD,LONGITUD
"IQUIQUE, PEDRO PRADO, ORELLA",-20.2212841,-70.1348904
"IQUIQUE, AV. LA TIRANA, CALLE 6",-20.2307033,-70.1356692
"ALTO HOSPICIO, LOS GUINDALES, LOS AROMOS, 2490.0",-20.2652492,-70.1055102
POZO ALMONTE,-20.2570503,-69.7857064
"IQUIQUE, JUAN MARTINEZ, SARGENTO ALDEA",-20.2160713,-70.1451094
"PICA, CAMINO PRIVADO MINERA COLLAHUASI, 24.0",-20.9814192,-68.6379674
"IQUIQUE, THOMPSON, OSCAR BONILLA",-20.2154831,-70.1401029
"IQUIQUE, THOMPSON, VIVAR",-20.2148742,-70.1485661
ALTO HOSPICIO,-20.2686722,-70.1049169
"IQUIQUE, RAMIREZ, 1270.0",-20.2184918,-70.1494876
"IQUIQUE, RANCAGUA, CACHARPAYAS",-20.2350388,-70.1325303
"IQUIQUE, RAMIREZ, 1162.0",-20.2184918,-70.1494876
"IQUIQUE, ERRAZURIS, THOMPSON",-20.2152505,-70.1435156
"ALTO HOSPICIO, TILIVICHE, LOS AVELLANOS, 3290.0",-20.2686722,-70.1049169
"IQUIQUE, RAMIREZ, GOROSTIAGA",-20.2168749,-70.1494213
"IQUIQUE, 18 DE SEPTIEMBRE, LIBERTAD",-20.2307033,-70.1356692
"ALTO HOSPICIO, AV. LOS ALAMOS CON RAMON PEREZ OPAZO, 2500.0",-20.2665454,-70.1028868
"IQUIQUE, ARTURO PRAT, AEROPUERTO",-20.244478,-70.1410328
"IQUIQUE, TADEO HAENKE, GENARO GALLO",-20.2394749,-70.1403552
"IQUIQUE, la torre, 21 de mayo",-20.2307033,-70.1356692
"IQUIQUE, OSCAR BONILLA, DIEGO PORTALES",-20.2297964,-70.1422898
ALTO HOSPICIO,-20.2686722,-70.1049169
"ALTO HOSPICIO, AV. LOS CONODRES CON TARAPACA, 2380.0",-20.2743469,-70.0972785
"IQUIQUE, OHIGGINS, VIVAR",-20.218536,-70.1488892
"IQUIQUE, AVDA. CHIPANA",-20.2307033,-70.1356692
"IQUIQUE, AVDA. ARTURO PRAT",-20.2484469,-70.1381101
"IQUIQUE, OBISPO LABBE, MANUEL RODRIGUEZ",-20.2233179,-70.1505699
"ALTO HOSPICIO, AV. LOS CONDORES CON LA GRANJA, 3290.0",-20.2719484,-70.1029629
"ALTO HOSPICIO, AV. LAS AMERICAS CON CARMELA CARVAJAL, 2900.0",-20.2800542,-70.1007563
POZO ALMONTE,-20.2570503,-69.7857064
"ALTO HOSPICIO, PASAJE SAN FRANCISCO, 4151.0",-20.2686722,-70.1049169
IQUIQUE,-20.2307033,-70.1356692
"IQUIQUE, gomez carreño",-20.2333352,-70.1324357
"IQUIQUE, avda. arturo prat",-20.2484469,-70.1381101
"ALTO HOSPICIO, AV. LAS AMERICAS, SANTA MARIA, 2390.0",-20.2686722,-70.1049169
"IQUIQUE, HEROES DE LA CONCEPCION, CESPEDES Y GONZALEZ",-20.2247382,-70.139754
"ALTO HOSPICIO, LOS MANZANOS CON LOS ALAMOS, 2590.0",-20.2686722,-70.1049169
"IQUIQUE, TADEO HAENKE, CERRO DRAGON",-20.2386682,-70.1296108
"IQUIQUE, LOS RIELES, ORELLA",-20.2208235,-70.1432206
POZO ALMONTE,-20.2570503,-69.7857064
"IQUIQUE, EMILIO RECABARREN, ARTURO PRAT",-20.23336,-70.14116
"ALTO HOSPICIO, AV. LAS AMERICAS CON PAULA JARAQUEMADA, 2890.0",-20.2830792,-70.1016215
POZO ALMONTE,-20.2570503,-69.7857064
POZO ALMONTE,-20.2570503,-69.7857064
POZO ALMONTE,-20.2570503,-69.7857064
"ALTO HOSPICIO, AV. LOS ALAMOS CON LOS NOGALES, 3200.0",-20.2662507,-70.1025442
"IQUIQUE, HEROES DE LA CONCEPCION, DIEGO PORTALES",-20.2300539,-70.1409672
"ALTO HOSPICIO, SANTA ROSA, AV. LA PAMPA, 2900.0",-20.2686722,-70.1049169
"IQUIQUE, PEDRO PRADO, 2520.0",-20.2396655,-70.1345536
"IQUIQUE, OHHIGGINS, OBISPO LABBE",-20.2184392,-70.1503783
IQUIQUE,-20.2307033,-70.1356692
POZO ALMONTE,-20.2570503,-69.7857064
"IQUIQUE, VIVAR, SARGENTE ALDEA",-20.2159485,-70.1486532
"IQUIQUE, DIEGO PORTALES, AVENIDA  PRAT",-20.2307033,-70.1356692
"IQUIQUE, PROGRESO, 1926.0",-20.2243231,-70.1331496
"IQUIQUE, 18 dfe septiembre, diego portales",-20.2306665,-70.1371297
"IQUIQUE, FARNCISCO BILBAO, BALMACEDA",-20.2653785,-70.126922
COLCHANE,-19.2761393,-68.6388049
"ALTO HOSPICIO, LOS NOGALES, 3100.0",-20.2663191,-70.0996867
"PICA, CALLE SIMON BOLIVAR CON PARRACP FREDERICH, 1.0",,
"IQUIQUE, LIBERTAD, OSCAR BONILLA",-20.2194645,-70.1403842
POZO ALMONTE,-20.2570503,-69.7857064
POZO ALMONTE,-20.2570503,-69.7857064
"IQUIQUE, AV. ARTURO PRAT, DIEGO PORTALES",-20.244478,-70.1410328
POZO ALMONTE,-20.2570503,-69.7857064
"IQUIQUE, FRESIA, 231.0",-20.2280658,-70.1358063
"POZO ALMONTE, INTERNA QUEBRADA BLANCA, 62.0",-20.2570503,-69.7857064
"IQUIQUE, TADEO HAENKE, HEROES DE LA CONCEPCION",-20.2379949,-70.1442259
"IQUIQUE, GENARO GALLO, AV. PLAYA BRAVA",-20.2422792,-70.1413978
"IQUIQUE, CESPEDES Y GONZALEZ, AMUNATEGUI",-20.2244134,-70.14698
PICA,,
"ALTO HOSPICIO, AV. COSTANERA, 3234.0",-20.2686722,-70.1049169
"IQUIQUE, PEDRO PRADO, 2380.0",-20.2396655,-70.1345536
"POZO ALMONTE, calle peña chica, 256.0",-20.264878,-69.7832647
"PICA, camino pintado, 101.0",,
PICA,,
"IQUIQUE, CIRCUNVALACION, SOTOMAYOR",-20.2111333,-70.1416166
ALTO HOSPICIO,-20.2686722,-70.1049169
"IQUIQUE, TADEO HAENKE, PEDRO PRADO",-20.2414031,-70.1341858
ALTO HOSPICIO,-20.2686722,-70.1049169
"IQUIQUE, JUAN GIRAOS, 1649.0",-20.2307033,-70.1356692
"IQUIQUE, HEROES DE LA CONCEPCION, 2555.0",-20.2111906,-70.1384119
"IQUIQUE, CIRCUNVALACION, MANZANA 5",-20.230544,-70.129033
"IQUIQUE, MAULE, LAS CARPAS",-20.2374095,-70.1293885
"IQUIQUE, SALVADOR ALLENDE, RAMON PEREZ OPAZO",-20.2542691,-70.1314071
"POZO ALMONTE, comercio con calle cascada, 0.0",-20.2570503,-69.7857064
"IQUIQUE, LOS MAITENES, ORELLA",-20.2213609,-70.1334644
"IQUIQUE, OBISPO LABBE, RIQUELME",-20.2213589,-70.1504909
"IQUIQUE, 18 DE SEPTIEMBRE, SARGENTO ALDEA",-20.2161654,-70.142953
"IQUIQUE, SOTOMAYOR, AVENIDA PRAT",-20.2111333,-70.1416166
PICA,,
"IQUIQUE, SANTIAGO POLANCO, YABRICOYA",-20.2473355,-70.1356494
"PICA, la banda con las animas, 0.0",,
PICA,,
IQUIQUE,-20.2307033,-70.1356692
ALTO HOSPICIO,-20.2686722,-70.1049169
"IQUIQUE, 18 DE SEPTIEMBRE, ORELLA",-20.2208235,-70.1432206
"IQUIQUE, ORELLA, BARROS ARANA",-20.2205893,-70.147605
"IQUIQUE, AV. HEROES DE LA CONCEPCION, LATORRE",-20.2265534,-70.1400001
ALTO HOSPICIO,-20.2686722,-70.1049169
"IQUIQUE, AV. HÉROES DE LA CONCEPCIÓN, ORELLA",-20.2210371,-70.1394955
"IQUIQUE, SOTOMAYOR, 657.0",-20.2111333,-70.1416166
"IQUIQUE, AV. LA TIRANA, PJE. VALLE VERDE",-20.2543166,-70.1260602
IQUIQUE,-20.2307033,-70.1356692
"IQUIQUE, RAMIREZ, GOROSTIAGA",-20.2168749,-70.1494213
"IQUIQUE, AV. PEDRO PRADO, 2345.0",-20.2396655,-70.1345536
"IQUIQUE, GENARO GALLO, LAS ROSAS",-20.2373067,-70.139562
POZO ALMONTE,-20.2570503,-69.7857064
"ALTO HOSPICIO, SALITRERA ROSARIO, 2988.0",-20.2721787,-70.1023937
"IQUIQUE, AVD. LA TIRANA, 2913.0",-20.2543166,-70.1260602
"IQUIQUE, MANUEL RODRIGUEZ, 18 DE SEPTIEMBRE",-20.2236,-70.1434542
"IQUIQUE, OSCAR BONILLA, PASAJE 2",-20.2264987,-70.1411131
"IQUIQUE, AVDA. ARTURO PRAT, 4200.0",-20.2484469,-70.1381101
"IQUIQUE, LAS ZAMPOÑAS, PEDRO DE VALDIVIA",-20.2339293,-70.1340386
"IQUIQUE, AVDA. CERRO DRAGÓN, EL MONTE",-20.2455526,-70.1292691
"IQUIQUE, ESMERALDA, RAMIREZ",-20.2307033,-70.1356692
POZO ALMONTE,-20.2570503,-69.7857064
POZO ALMONTE,-20.2570503,-69.7857064
IQUIQUE,-20.2307033,-70.1356692
"IQUIQUE, SANTIAGO POLANCO, AVDA. PLAYA BRAVA",-20.2478923,-70.1368759
"IQUIQUE, AVDA. LA TIRANA, 1582.0",-20.2543166,-70.1260602
POZO ALMONTE,-20.2570503,-69.7857064
"IQUIQUE, AVDA. FRANCISCO VERGARA, RAMON OPAZO",-20.255036,-70.1327603
IQUIQUE,-20.2307033,-70.1356692
"IQUIQUE, AVDA. CASTRI RAMOS, AVDA. CERRO DRAGON",-20.2443662,-70.129305
COLCHANE,-19.2761393,-68.6388049
"ALTO HOSPICIO, AVDA. CIRCUNVALACION CRUCE CON CALLE SAN PABLO, AVDA. CIRCUNVALACION CRUCE CON CALLE SAN PALBO",-20.2686722,-70.1049169
"IQUIQUE, 21 DE MAYO, LATORRE",-20.2307033,-70.1356692
IQUIQUE,-20.2307033,-70.1356692
"IQUIQUE, ELIAS LAFERTE, ORELLA",-20.2307033,-70.1356692
PICA,,
"ALTO HOSPICIO, AVDA. LOS ALAMSO CON AVDA. CIRCUNVALACION, AVDA. CIRCUNVALACION CON AVDA. LOS ALAMOS",-20.2722788,-70.1097974
"IQUIQUE, SALITRERA VICTORIA, MAPOCHO",-20.2049542,-70.1369169
"IQUIQUE, BULNES, AMUNÁTEGUI",-20.2195518,-70.1467191
POZO ALMONTE,-20.2570503,-69.7857064
"IQUIQUE, CHINTAGUAY, AVDA. PEDRO PRADO",-20.226475,-70.1352834
POZO ALMONTE,-20.2570503,-69.7857064
"POZO ALMONTE, BALMACEDA, 250.0",-20.2601124,-69.7865351
"POZO ALMONTE, SANFUENTES, 700.0",-20.2570503,-69.7857064
"ALTO HOSPICIO, CIRCUNVALACION, LOS GUINDALES, 3290.0",-20.2652492,-70.1055102
"IQUIQUE, 21 DE MAYO, ORELLA",-20.2208923,-70.1421601
POZO ALMONTE,-20.2570503,-69.7857064
"IQUIQUE, CESPEDES Y GONZÁLEZ, GENARO GALLO",-20.2249004,-70.1370717
"IQUIQUE, ESMERALDA, AMUNATEGUI",-20.2176315,-70.1465983
"IQUIQUE, AVDA. PRAT, JOSÉ MIGUEL CARRERA",-20.2266274,-70.1421023
"IQUIQUE, 12 DE FEBRERO, TARAPACA",-20.2198336,-70.1414293
"ALTO HOSPICIO, HUNATAJAYA CON LOS MANZANOS, 2590.0",-20.2666108,-70.1006294
"IQUIQUE, AVDA. ARTURO PRAT, 2330.0",-20.2484469,-70.1381101
"ALTO HOSPICIO, SALITRERA IRIS, CERRO  ESMERALDA, 3290.0",-20.2721122,-70.1000249
"ALTO HOSPICIO, LAS AMERICAS, SANTA MARIA, 3490.0",-20.2847174,-70.1022289
"IQUIQUE, BULNES, JUAN MARTINEZ",-20.219616,-70.1454426
"IQUIQUE, AV. CAMPOS DE DEPORTE, BOMBERO JUAN GIRAO",-20.2254732,-70.1318466
POZO ALMONTE,-20.2570503,-69.7857064
"IQUIQUE, BARROS ARANA, SAN MARTIN",-20.2127018,-70.1471204
POZO ALMONTE,-20.2570503,-69.7857064
"IQUIQUE, AV. SANTIAGO POLANCO, AV. PLAYA BRAVA",-20.2478923,-70.1368759
"IQUIQUE, AV. PEDRO PRADO, OHIGGINS",-20.2193218,-70.1347013
"IQUIQUE, AV. PRAT, AV. PLAYA BRAVA",-20.244478,-70.1410328
POZO ALMONTE,-20.2570503,-69.7857064
"IQUIQUE, AV. PRAT, AV. HEROES DE LA CONCEPCION",-20.2409532,-70.1449725
IQUIQUE,-20.2307033,-70.1356692
"IQUIQUE, AV. LA TIRANA, AV. LA TIRANA",-20.2543166,-70.1260602
PICA,,
"IQUIQUE, OHIGGINS, AV. HEROES DE LA CONCEPCION",-20.2190716,-70.1393305
PICA,,
ALTO HOSPICIO,-20.2686722,-70.1049169
"ALTO HOSPICIO, LOS ALOMSO CON LOS ALMENDROS, 2790.0",-20.2556598,-70.1069637
"IQUIQUE, PEDRO GAMBONI, AV. PEDRO PRADO",-20.2364664,-70.1360525
"POZO ALMONTE, ESTACION, 5.0",-20.2570503,-69.7857064
"IQUIQUE, ZEGERS, JUAN MARTINESZ",-20.217696,-70.1452689
"IQUIQUE, AV. SANTIAGO POLANCO, AV. ARTURO PRAT",-20.2486089,-70.1382111
"IQUIQUE, LOS ALGARROBOS, 3238.0",-20.2579013,-70.1242713
HUARA,-19.995924,-69.7712417
HUARA,-19.995924,-69.7712417
"IQUIQUE, TUCAPEL, 2446.0",-20.2402524,-70.133268
"IQUIQUE, AV. PEDRO PRADO, BULNES",-20.2201814,-70.1349026
"ALTO HOSPICIO, SANTA MARIA, AV. LAS AMERICAS, 3490.0",-20.2847174,-70.1022289
"ALTO HOSPICIO, LORETO PINEDA, 3007.0",-20.2833517,-70.1036934
CAMINA,-19.3110655,-69.4269996
"ALTO HOSPICIO, JERUSALEM, 3954.0",-20.2686722,-70.1049169
"IQUIQUE, CARDENAL JOSE CARDENAL CARO, PJE.  VIA LOCAL",-20.2641213,-70.1252803
"ALTO HOSPICIO, AV. LAS AMERICAS CON CANADA, 31.0",-20.2686722,-70.1049169
"ALTO HOSPICIO, LOS GUINDALES CON LOS KIWIS, 2590.0",-20.2658849,-70.1060772
"ALTO HOSPICIO, SANTA ROSA DE HUARA, 25.0",-20.2714519,-70.0879295
"ALTO HOSPICIO, LOS KIWIS, LOS GUINDALES, 2590.0",-20.2658849,-70.1060772
IQUIQUE,-20.2307033,-70.1356692
HUARA,-19.995924,-69.7712417
"IQUIQUE, BERNARDINO GUERRA, 13 ORIENTE",-20.2296924,-70.134465
"ALTO HOSPICIO, CERRO ESMERALDA, 2976.0",-20.2721122,-70.1000249
ALTO HOSPICIO,-20.2686722,-70.1049169
HUARA,-19.995924,-69.7712417
"ALTO HOSPICIO, AV. LOS AROMOS, 2328.0",-20.2736545,-70.0937502
"IQUIQUE, AV. LA TIRANA, AV. ARTURO PRAT",-20.2543166,-70.1260602
ALTO HOSPICIO,-20.2686722,-70.1049169
ALTO HOSPICIO,-20.2686722,-70.1049169
POZO ALMONTE,-20.2570503,-69.7857064
"IQUIQUE, AV. PRAT, 2120.0",-20.244478,-70.1410328
PICA,,
"IQUIQUE, JUAN MARTINEZ, ZEGERS",-20.2307033,-70.1356692
COLCHANE,-19.2761393,-68.6388049
"ALTO HOSPICIO, RICARDO LAGOS CON OVALLE, 2450.0",-20.2686722,-70.1049169
"IQUIQUE, AV. LA TIRANA, CASTRO RAMOS",-20.2543166,-70.1260602
"IQUIQUE, ANIBAL PINTO, BULNES",-20.2167578,-70.1528862
"IQUIQUE, CERRO DRAGON, MAULE",-20.2374931,-70.1298787
"ALTO HOSPICIO, AV. LAS AMERICAS CON CARMELA CARVAJAL, 3000.0",-20.2800542,-70.1007563
"IQUIQUE, AV. PROGRESO, CESPEDES Y GONZALEZ",-20.2251209,-70.1331427
"ALTO HOSPICIO, AV. LAS PARCELAS, 20.0",-20.2753339,-70.0908506
"IQUIQUE, AV. PEDRO PRADO, ORELLA",-20.2212841,-70.1348904
HUARA,-19.995924,-69.7712417
"ALTO HOSPICIO, LOS DATILES, AV. RAMON PEREZ OPAZO, 2500.0",-20.2642587,-70.1057858
"IQUIQUE, ZEGERS, AV. HEROES DE LA CONCEPCION",-20.2180007,-70.1392298
"IQUIQUE, ZEGERS, VIVAR",-20.2175284,-70.1487847
"IQUIQUE, JOSE JOAQUIN PEREZ, AVDA. PEDRO PRADO",-20.2229938,-70.135099
"IQUIQUE, ESMERALDA, ERRAZURIZ",-20.2118422,-70.1432225
ALTO HOSPICIO,-20.2686722,-70.1049169
"IQUIQUE, AMUNATEGUI, CESPEDES Y GONZALEZ",-20.2244134,-70.14698
POZO ALMONTE,-20.2570503,-69.7857064
ALTO HOSPICIO,-20.2686722,-70.1049169
"IQUIQUE, 18 DE SEPTIEMBRE, SAN MARTIN",-20.2307033,-70.1356692
"IQUIQUE, AVDA. ARTURO PRAT, SOTOMAYOR",-20.2109307,-70.1514957
"ALTO HOSPICIO, ANTOFAGASTA CON PASAJE TALCA, 45.0",-20.2759861,-70.0810375
"ALTO HOSPICIO, LAS AVELLANAS CON LA NORIA, 2890.0",-20.268972,-70.1069944
ALTO HOSPICIO,-20.2686722,-70.1049169
"IQUIQUE, AVDA. ARTURO PRAT, AVDA. CHIPANA",-20.2484469,-70.1381101
"IQUIQUE, AVDA. ARTURO PRAT, AVDA. AEROPUERTO",-20.2307033,-70.1356692
"IQUIQUE, CHANON, ALEJANDRIA",-20.2055919,-70.1335815
"ALTO HOSPICIO, CALLE FINLANDIA, AV. LAS AMERICAS, 45.0",-20.2957076,-70.1062929
"IQUIQUE, PLAYA BLANCA, RANCAGUA",-20.2307033,-70.1356692
"IQUIQUE, AVDA. LA TIRANA, PRESITENTE EDUARDO FREI MONTALVA",-20.2580681,-70.1253626
"ALTO HOSPICIO, LOS DATILES, LOS ALMENDROS, 3490.0",-20.2634765,-70.1050536
"IQUIQUE, JUAN MARTINEZ, 464.0",-20.2193478,-70.1454167
"ALTO HOSPICIO, LOS KIWIS CON LOS TAMARUGOS, 2790.0",-20.268833,-70.1028797
"IQUIQUE, SARGENTO ALDEA, 10 ORIENTE",-20.2164258,-70.1358155
"IQUIQUE, AVDA. CHIPANA, GUATACONDO",-20.2307033,-70.1356692
"ALTO HOSPICIO, AV. RAMON PEREZ OPAZO, LOS GUINDALES, 3450.0",-20.2647266,-70.1050322
"IQUIQUE, 21 DE MAYO, HERNAN FUENZALIDAD",-20.2286595,-70.1427026
HUARA,-19.995924,-69.7712417
"IQUIQUE, OHIGGINS, ELEUTERIO RAMIREZ",-20.2184918,-70.1494876
"IQUIQUE, VIVAR, 1214.0",-20.218536,-70.1488892
"IQUIQUE, TARAPACA, OSCAR BONILLA",-20.2194645,-70.1403842
"POZO ALMONTE, estacion con pampa germania, 0.0",-20.2612535,-69.7846354
"IQUIQUE, SERRANO, PATRICIO LYNCH",-20.2130592,-70.1513845
"IQUIQUE, OHIGGINS, AV. PEDRO PRADO",-20.2193218,-70.1347013
"IQUIQUE, AV. CERRO DRAGON, 3155.0",-20.2455526,-70.1292691
"IQUIQUE, ZEGERS, AMUNATEGUI",-20.2176315,-70.1465983
"ALTO HOSPICIO, AV. LAS AMERICAS, AV. SANTA MARIA, 3450.0",-20.2847174,-70.1022289
HUARA,-19.995924,-69.7712417
"IQUIQUE, RUTA A-1, 400.0",-20.2307033,-70.1356692
"IQUIQUE, 2 ORIENTE, 4 SUR",-20.2742676,-70.1241236
"IQUIQUE, AV. CERRO DRAGON, GOMEZ CARREÑO",-20.2330057,-70.1302175
"ALTO HOSPICIO, AV. LOS AROMOS, LOS GUINDALES, 2690.0",-20.2661815,-70.1064075
"ALTO HOSPICIO, AV. SANTA MARIA, AV. LAS AMERICAS, 3490.0",-20.2847174,-70.1022289
"ALTO HOSPICIO, NACIONES UNIDAS CON SAN FERNANDO, 87.0",-20.2686722,-70.1049169
"IQUIQUE, AVDA. SALVADOR ALLENDE, AV. JOSE MIGUEL CARRERA",-20.2307033,-70.1356692
POZO ALMONTE,-20.2570503,-69.7857064
ALTO HOSPICIO,-20.2686722,-70.1049169
"IQUIQUE, THOMPSON, 21 DE MAYO",-20.2153669,-70.1418343
"IQUIQUE, JUAN MARTINEZ, LATORRE",-20.2169534,-70.1451921
"ALTO HOSPICIO, PAULA JARAQUEMADA, ADELA ZAMUDIO, 2790.0",-20.2833013,-70.1005459
"IQUIQUE, AV.PEDRO PRADO, AVDA. P.PRADO",-20.2653648,-70.1252091
"IQUIQUE, RAMIREZ, MANUEL  RODRIGUEZ",-20.2233541,-70.1497193
ALTO HOSPICIO,-20.2686722,-70.1049169
PICA,,
"IQUIQUE, PATRICIO LYNCH, JOSE JOAQUIN PEREZ",-20.2223397,-70.1515796
ALTO HOSPICIO,-20.2686722,-70.1049169
"IQUIQUE, ANIBAL PINTO, OHIGGINS",-20.2182824,-70.1529419
"IQUIQUE, CAMPOS ORIENTE, AVDA. P. PRADO",-20.2307033,-70.1356692
ALTO HOSPICIO,-20.2686722,-70.1049169
"IQUIQUE, OBISPO LABBE, RIQUELME",-20.2213589,-70.1504909
"IQUIQUE, DIEGO PORTALES, PJE. VIÑA DEL MAR",-33.0153481,-71.5500276
POZO ALMONTE,-20.2570503,-69.7857064
"ALTO HOSPICIO, AV. LAS AMERICAS CON FINLANDIA, 40.0",-20.2686722,-70.1049169
"IQUIQUE, TARAPACA, ELEUTERIO RAMIREZ",-20.2184918,-70.1494876
"IQUIQUE, 21 DE MAYO, 1203.0",-20.2307033,-70.1356692
HUARA,-19.995924,-69.7712417
"PICA, CAMINO PRIVADO MINERA, 94000.0",,
"IQUIQUE, AVDA. HERLA CONCEPCIONOES DE",-20.2307033,-70.1356692
"IQUIQUE, LAS ROSAS, GENARO GALLO",-20.2373067,-70.139562
"IQUIQUE, AVDA. LA TIRANA, TADEO HEANKE",-20.2382135,-70.1286667
"IQUIQUE, JUAN MARTINEZ, SERRANO",-20.2193478,-70.1454167
"IQUIQUE, OBISPO LABBE, RIQUELME",-20.2213589,-70.1504909
"IQUIQUE, AVDA. LA TIRANA, RUTA A-16",-20.2543166,-70.1260602
"IQUIQUE, AVDA. CIRCUNVALACION, MAPACHO",-20.2063726,-70.1306179
"IQUIQUE, 12 DE FEBRERO, SERRANO",-20.2307033,-70.1356692
"IQUIQUE, MANUEL CASTRO RAMOS, AVDA. LA TIRANA",-20.2444412,-70.1282904
ALTO HOSPICIO,-20.2686722,-70.1049169
"ALTO HOSPICIO, AV. LAS AMERICAS, 3458.0",-20.2901059,-70.1042119
"ALTO HOSPICIO, AV. LAS AMERICAS",-20.2901059,-70.1042119
"IQUIQUE, RANCAGUA, MAULE",-20.2379358,-70.1322064
"ALTO HOSPICIO, AV. LAS AMERICAS, AV. SANTA MARIA, 3290.0",-20.2847174,-70.1022289
"IQUIQUE, Arturo Fernández, 1373.0",-20.2187948,-70.1443066
POZO ALMONTE,-20.2570503,-69.7857064
"IQUIQUE, PATRICIO LYNCH, SOTOMAYOR",-20.2154369,-70.1513951
"ALTO HOSPICIO, AV. COSTANERA, LOS AVELLANOS, 3290.0",-20.2686722,-70.1049169
"ALTO HOSPICIO, VERTEDERO MUNICIPAL, 1.0",-20.2686722,-70.1049169
"IQUIQUE, 18 DE SEPTIEMBRE, SARGENTO ALDEA",-20.2161654,-70.142953
HUARA,-19.995924,-69.7712417
COLCHANE,-19.2761393,-68.6388049
"IQUIQUE, AMUNATEGUI, SARGENTO ALDEA",-20.2160359,-70.1465023
ALTO HOSPICIO,-20.2686722,-70.1049169
"IQUIQUE, 18 DE SEPTIEMBRE, SAN MARTIN",-20.2307033,-70.1356692
"ALTO HOSPICIO, AV. LA PAMPA, LOS ALMENDROS, 3290.0",-20.2725893,-70.1031146
"ALTO HOSPICIO, AV. LA PAMPA, LOS CONDORES, 2990.0",-20.2720767,-70.1028957
"IQUIQUE, BARROS ARANA, OSCAR TOMAS BONILLA",-20.2276758,-70.1407143
"IQUIQUE, AVDA. PEDRO PRADO, JOSE MIGUEL CARRERA",-20.2269962,-70.1354064
ALTO HOSPICIO,-20.2686722,-70.1049169
COLCHANE,-19.2761393,-68.6388049
"IQUIQUE, vivar, 458.0",-20.218536,-70.1488892
HUARA,-19.995924,-69.7712417
"IQUIQUE, PORVENIR, AV. CIRCUNVALACIÓN",-20.2063726,-70.1306179
"IQUIQUE, CAMPO DE DEPORTE, MARGARITA NARANJO",-20.225863,-70.1315828
HUARA,-19.995924,-69.7712417
"IQUIQUE, SOTOMAYOR, PATRICIO LYNCH",-20.2109436,-70.151012
IQUIQUE,-20.2307033,-70.1356692
ALTO HOSPICIO,-20.2686722,-70.1049169
"IQUIQUE, AVDA. CHIPANA, PJE. QUINTERO",-32.7728122,-71.5335554
"IQUIQUE, CASTRO RAMOS, AVDA. CERRO DRAGÓN",-20.2443662,-70.129305
"ALTO HOSPICIO, AV. CIRCUNVALACION, 3479.0",-20.2853229,-70.1048561
"IQUIQUE, AVDA. PADRE HURTADO, AV. ARTURO PRAT",-20.2625059,-70.130789
ALTO HOSPICIO,-20.2686722,-70.1049169
"ALTO HOSPICIO, CIRCUNVALACION CON SAN DONATO, 2990.0",-20.2798646,-70.1055245
"IQUIQUE, CESPEDES GONZALEZ, JUAN MARTINEZ",-20.2244564,-70.145933
HUARA,-19.995924,-69.7712417
"IQUIQUE, ESTACIONAMIENTO SUPER, LIDER IQUIQUE, AVDA. HEROES DE LA CONCEPCION",-20.235014,-70.1435904
"HUARA, 1840.0",-19.995924,-69.7712417
ALTO HOSPICIO,-20.2686722,-70.1049169
"IQUIQUE, AVDA. ARTURO PRAT, VIVAR",-20.2255093,-70.1494647
ALTO HOSPICIO,-20.2686722,-70.1049169
"IQUIQUE, VIVAR, ESMERALDA",-20.2115901,-70.1484112
COLCHANE,-19.2761393,-68.6388049
PICA,,
HUARA,-19.995924,-69.7712417
POZO ALMONTE,-20.2570503,-69.7857064
"IQUIQUE, AMUNATEGUI, LATORRE",-20.2168169,-70.1465983
HUARA,-19.995924,-69.7712417
"IQUIQUE, AV LA TIRANA, CALLE TRES",-20.2561589,-70.1256228
"IQUIQUE, JUAN MARTINEZ, JOSE JOAQUIN PEREZ",-20.2225558,-70.1457281
"ALTO HOSPICIO, CERRO ESMERALDA, PAMPA PERDIZ, 3490.0",-20.2721122,-70.1000249
"IQUIQUE, TARAPACA, BARROS ARANA",-20.2175833,-70.1474318
"IQUIQUE, SGTO. ALSEA, AMUNATEGUI",-20.2176315,-70.1465983
ALTO HOSPICIO,-20.2686722,-70.1049169
HUARA,-19.995924,-69.7712417
"IQUIQUE, AVDA. ARTURO PRAT, GOROSTIAGA",-20.2141572,-70.1548644
"ALTO HOSPICIO, CHACA, LOS ALMENDROS, 3490.0",-20.2687204,-70.1005212
"IQUIQUE, RAMIREZ, LATORRE",-20.2160808,-70.1493656
"ALTO HOSPICIO, LOS NOGALES, LOS DATILES, 2890.0",-20.2620837,-70.1037992
"IQUIQUE, AVDA. CIRCUNVALACION, ROTONDA EL PAMPINO",-20.2208561,-70.1319844
"IQUIQUE, AVDA. SALVADOR ALLENDE, AVDA. CERRO DRAGON",-20.2564933,-70.1277582
"IQUIQUE, HERNAN FUENZALIDA, AVDA. SALVADOR ALLENDE",-20.2290311,-70.135502
ALTO HOSPICIO,-20.2686722,-70.1049169
"IQUIQUE, OBISPO LABBE, SIMON BOLIVAR",-20.2122091,-70.1502238
"IQUIQUE, MANUEL CASTRO RAMOS, CERRO DRAGON",-20.2443662,-70.129305
POZO ALMONTE,-20.2570503,-69.7857064
"ALTO HOSPICIO, LAS AVELLANAS, TILIVICHI, 2990.0",-20.2701428,-70.1084922
PICA,,
"IQUIQUE, TOMAS BONILLA, COLO-COLO",-20.2278346,-70.136846
POZO ALMONTE,-20.2570503,-69.7857064
"POZO ALMONTE, comercio con estacion, 0.0",-20.2570503,-69.7857064
"IQUIQUE, GENARO GALLO, MANUEL BULNES",-20.2201278,-70.1361812
POZO ALMONTE,-20.2570503,-69.7857064
"IQUIQUE, AVDA. PRAT, PLAYA BRAVA",-20.2464111,-70.1403293
"IQUIQUE, PASAJE NRO. 05, INTERIOR TERMINAL AGOPECUARIO",-20.2307033,-70.1356692
"ALTO HOSPICIO, AV. PAMPA PERDIZ ESQUINA LOS NOGALES, 2590.0",-20.2708507,-70.0986937
"IQUIQUE, PEDRO PRADO, MANUEL RODRIGUEZ",-20.2239461,-70.1351704
"ALTO HOSPICIO, ESMERALDA, LOS GUINDALES, 2790.0",-20.266942,-70.1070489
"ALTO HOSPICIO, LOS TAMARUGOS, LOS CONDORES, 2690.0",-20.2714671,-70.1045706
"POZO ALMONTE, 21 DE MAYO CON PAMPA GERMANIA, 0.0",-20.2601657,-69.7846378
"IQUIQUE, AVDA.  ARTURO PRAT, SALITERA  VICTORIA",-20.2048548,-70.1419282
"IQUIQUE, VIVAR, OHIGGINS",-20.218536,-70.1488892
"IQUIQUE, ORELLA, ARTURO FERNANDEZ",-20.2207652,-70.1443587
POZO ALMONTE,-20.2570503,-69.7857064
POZO ALMONTE,-20.2570503,-69.7857064
"IQUIQUE, ESTACIONAMIENTOS, MALL ZOFRI",-20.2319612,-70.1421087
"IQUIQUE, LATORRE, 21 DE MAYO",-20.2170705,-70.1435776
"IQUIQUE, AVDA. PLAYA BRAVA, SANTIAGO POLANCO",-20.2478923,-70.1368759
"IQUIQUE, AVDA. PEDRO PRADO, ELIAS LAFFERTE",-20.2225972,-70.1350708
POZO ALMONTE,-20.2570503,-69.7857064
"IQUIQUE, AVDA. PEDRO PRADO, AVDA. CHIPANA",-20.2396655,-70.1345536
"IQUIQUE, COLON, INTERIOR RECINTOS AMURALLADOS",-20.2307033,-70.1356692
"IQUIQUE, AVDA. LA TIRANA, CASTRO RAMOS",-20.2444412,-70.1282904
"ALTO HOSPICIO, AV. LOS ALAMOS CON TILIVICHI, 2790.0",-20.2711253,-70.1077139
HUARA,-19.995924,-69.7712417
"IQUIQUE, AVDA. P. PRADO, MANUEL CASTRO RAMOS",-20.244863,-70.1334046
"IQUIQUE, JUAN MARTINEZ, LATORRE",-20.2169534,-70.1451921
PICA,,
"ALTO HOSPICIO, AV. LOS ARMOS CON SANTA MARTA, 3690.0",-20.273488,-70.0931295
PICA,,
"IQUIQUE, FRANCISCO VERGARA, ANKIEL NIELSEN",-20.2487975,-70.1346724
"IQUIQUE, AMUNATEGUI, RIQUELME",-20.2216013,-70.146812
PICA,,
POZO ALMONTE,-20.2570503,-69.7857064
"ALTO HOSPICIO, AV. LOS AROMOS X LOS DALITES, 2190.0",-20.2736545,-70.0937502
"IQUIQUE, PRESIDENTE ERRAZURIZ, 1366.0",-20.223578,-70.1440132
ALTO HOSPICIO,-20.2686722,-70.1049169
"IQUIQUE, AVDA. LA TIRANA, CALLE CUATRO",-20.2543166,-70.1260602
"IQUIQUE, 18  DE SEPTIEMBRE, LIBERTAD",-20.2307033,-70.1356692
"IQUIQUE, AVDA. PRAT, AVDA. AEROPUERTO",-20.2307033,-70.1356692
"IQUIQUE, AVDA. HEROES DE LA CONCEPCION, DIEGO PORTALES",-20.2301432,-70.1411798
"IQUIQUE, DIAGONAL FRANCISCO BILBAO, 4150.0",-20.2617337,-70.1290955
"IQUIQUE, ZEGERS, BARROSARANA",-20.2175833,-70.1474318
POZO ALMONTE,-20.2570503,-69.7857064
"IQUIQUE, LOS MOREÑOS, 2630.0",-20.2371368,-70.1318248
"IQUIQUE, ESMERALDA, AMUNATEGUI",-20.2176315,-70.1465983
"ALTO HOSPICIO, CALLE 9 CON PASAJE 31, 31.0",-20.2686722,-70.1049169
"IQUIQUE, HAMBURGO, HONG-KONG",-20.207074,-70.1312176
"ALTO HOSPICIO, TILIVICHI, SANTA ROSA, 2790.0",-20.2770696,-70.1076069
"ALTO HOSPICIO, RAMON PEREZ OPAZO, 2755.0",-20.2701972,-70.1009113
POZO ALMONTE,-20.2570503,-69.7857064
POZO ALMONTE,-20.2570503,-69.7857064
COLCHANE,-19.2761393,-68.6388049
POZO ALMONTE,-20.2570503,-69.7857064
POZO ALMONTE,-20.2570503,-69.7857064
"IQUIQUE, PLAYA BRAVA, PEDRO GONZALEZ",-20.2427402,-70.1399698
"ALTO HOSPICIO, LOS AROMOS, 3970.0",-20.2556598,-70.1069637
ALTO HOSPICIO,-20.2686722,-70.1049169
"ALTO HOSPICIO, MANZANA 31, 31.0",-20.2686722,-70.1049169
HUARA,-19.995924,-69.7712417
"IQUIQUE, AVDA. PEDRO PRADO, SANTIAGO POLANCO",-20.2468369,-70.1329274
HUARA,-19.995924,-69.7712417
"IQUIQUE, ARTURO FERNANDEZ, SGTO. ALDEA",-20.2161264,-70.1441618
"IQUIQUE, MANUEL BULNES, ARTURO FERNANDEZ",-20.2196748,-70.1443406
"ALTO HOSPICIO, RICARDO LAGOS CON LOS AROMOS, 3990.0",-20.2686722,-70.1049169
"IQUIQUE, AVDA. H. DE LA CONCEPCION, TOMAS BONILLA",-20.2307033,-70.1356692
"IQUIQUE, AVDA. PEDRO PRADO, SANTIAGO POLANCO",-20.2468369,-70.1329274
POZO ALMONTE,-20.2570503,-69.7857064
"IQUIQUE, ORELLA, AMUNATEGUI",-20.2206303,-70.146763
ALTO HOSPICIO,-20.2686722,-70.1049169
"IQUIQUE, LATORRE, 18 DE SEPTIEMBRE",-20.2171182,-70.1429854
"ALTO HOSPICIO, AV. LAS AMERICAS CON CALLE ITALIA, 3590.0",-20.2936655,-70.1055504
POZO ALMONTE,-20.2570503,-69.7857064
"IQUIQUE, HECTOR DAVILA, 2807.0",-20.2355255,-70.1357594
"ALTO HOSPICIO, AV. SANTA ROSA ESQUINA LA PAMPA, 2590.0",-37.8956594,-65.0957792
HUARA,-19.995924,-69.7712417
"IQUIQUE, AVDA. H. DE LA CONCEPCION, RIQUELME",-20.2307033,-70.1356692
"IQUIQUE, AVDA. LA TIRANA, avda. fco. bilbao",-20.2691828,-70.1257417
"IQUIQUE, AVDA. A. PRAT, AMUNATEGUI",-20.2067534,-70.1452669
"IQUIQUE, ORELLA, PATRICIO LYNCH",-20.2203193,-70.1515539
"ALTO HOSPICIO, AV. SANTA MARIA, AV. LAS AMERICAS, 2390.0",-20.2847174,-70.1022289
"IQUIQUE, CASTRO RAMOS, AVDA. LA TIRANA",-20.2444412,-70.1282904
"ALTO HOSPICIO, CIRCUNVALACION, 3250.0",-20.2686722,-70.1049169
"IQUIQUE, CESPEDES GONZALEZ, ARTURO FERNANDEZ",-20.2245126,-70.1445436
"ALTO HOSPICIO, AV. LOS CONDORES X EL SALITRE, 2390.0",-20.2719484,-70.1029629
"IQUIQUE, SAN MARTIN, E. RAMIREZ",-20.2307033,-70.1356692
"IQUIQUE, AVDA. CERRO DRAGON, CASTRO RAMOS",-20.2443662,-70.129305
ALTO HOSPICIO,-20.2686722,-70.1049169
"IQUIQUE, PADRE HURTADO, CERRO DRAGON",-20.2603655,-70.1270142
POZO ALMONTE,-20.2570503,-69.7857064
"IQUIQUE, 18 DE SEPTIEMBRE, ORELLA",-20.2208235,-70.1432206
"IQUIQUE, INTERIOR SERVICENTRO COPEC, AVDA. A. PRAT NRO. 1732",-20.2307033,-70.1356692
POZO ALMONTE,-20.2570503,-69.7857064
"ALTO HOSPICIO, LOS GUINDALES CON AV. LOS AROMOS, 2790.0",-20.2661815,-70.1064075
"IQUIQUE, ZEGERS, AVDA. PEDRO PRADO",-20.2182167,-70.1347514
PICA,,
"IQUIQUE, SOLDADO PEDRO PRADO, DIEGO PORTALES",-20.2307248,-70.1356851
ALTO HOSPICIO,-20.2686722,-70.1049169
"IQUIQUE, AVDA. LA TIRANA, CASTRO RAMOS",-20.2444412,-70.1282904
"IQUIQUE, AVDA. A. PRAT, AVDA. H. DE LA CONCEPCION",-20.2484469,-70.1381101
POZO ALMONTE,-20.2570503,-69.7857064
ALTO HOSPICIO,-20.2686722,-70.1049169
"ALTO HOSPICIO, AV. LOS AROMOS, 3720.0",-20.2736545,-70.0937502
"IQUIQUE, RIQUELME, AMUNATEGUI",-20.2176315,-70.1465983
ALTO HOSPICIO,-20.2686722,-70.1049169
"ALTO HOSPICIO, GABRIELA MISTRAL, 4020.0",-20.2896028,-70.1064049
"ALTO HOSPICIO, AV. LOS AROMOS CON RAUL ERLICH, 3790.0",-20.2736545,-70.0937502
"IQUIQUE, ZEGERS, 21 DE MAYO",-20.2178506,-70.1419968
"IQUIQUE, TARAPACA, PATRICIO  LYNCH",-20.2154369,-70.1513951
"IQUIQUE, AVDA. H. DE LA CONCEPCION, LAS ROZAS",-20.2307033,-70.1356692
"IQUIQUE, JUAN MARTINEZ, BULNES",-20.2193059,-70.1455148
"ALTO HOSPICIO, SANTA ROSA, CALLE DOS, 2590.0",-20.2748883,-70.1038276
"IQUIQUE, AVDA. PRAT, DIEGO PORTALES",-20.2307033,-70.1356692
"IQUIQUE, AVDA. LA TIRANA, CALLE UNO",-20.2543166,-70.1260602
"IQUIQUE, TOCOPILLA, 3003.0",-22.0888423,-70.1961437
"IQUIQUE, MANUEL BULNES, AVDA. PEDRO PRADO",-20.2201814,-70.1349026
POZO ALMONTE,-20.2570503,-69.7857064
"IQUIQUE, LATORRE, ARTURO PEREZ CANTO",-20.2175256,-70.1371063
"ALTO HOSPICIO, LOS AROMOS, LAS PARCELAS, 3269.0",-20.2539593,-70.1060669
"IQUIQUE, prat, 2108.0",-20.2307033,-70.1356692
"IQUIQUE, ESMERALDA, PATRICIO LYNCH",-20.2154369,-70.1513951
"HUARA, JOSE MIGUEL CARRERA, ELEUTERIO RAMIREZ",-19.9959408,-69.7712298
ALTO HOSPICIO,-20.2686722,-70.1049169
POZO ALMONTE,-20.2570503,-69.7857064
POZO ALMONTE,-20.2570503,-69.7857064
POZO ALMONTE,-20.2570503,-69.7857064
"IQUIQUE, AVDA. ARTURO PRAT, AVDA. P. HURTADO",-20.2625059,-70.130789
"IQUIQUE, RUTA LA SAL 61B001, KLM 750",-20.2307033,-70.1356692
HUARA,-19.995924,-69.7712417
"IQUIQUE, PEDRO GAMBONI, AVDA. SALVADOR ALLENDE",-20.2364664,-70.1360525
"IQUIQUE, AVDA. LA TIRANA, AVDA. CHIPANA",-20.2518219,-70.1260999
"IQUIQUE, AVDA. LA TIRANA, CAMPOS DEPORTES",-20.227256,-70.1298393
POZO ALMONTE,-20.2570503,-69.7857064
COLCHANE,-19.2761393,-68.6388049
"IQUIQUE, COLO-COLO, BERNARDINO GUERRA",-20.2296258,-70.1370293
"IQUIQUE, DIEGO PORTALES, AVDA. ARTURO PRAT",-20.244478,-70.1410328
"IQUIQUE, LAS CABRAS, PUERTA NRO 12 ZOFRI",-20.20843,-70.14043
POZO ALMONTE,-20.2570503,-69.7857064
"ALTO HOSPICIO, LOS NOGALES, 3221.0",-20.2663191,-70.0996867
"IQUIQUE, PATRICIO LYNCH, PLAYA CHIPANA",-20.2154369,-70.1513951
"ALTO HOSPICIO, PARCELAS, 16.0",-20.2686722,-70.1049169
"IQUIQUE, ROTONDA EL PAMPINO, RUTA A-16",-20.2585155,-70.0726409
"IQUIQUE, 1350.0",-20.2307033,-70.1356692
"IQUIQUE, GENARO GALLO, LAS MARGARITAS",-20.2350493,-70.138558
POZO ALMONTE,-20.2570503,-69.7857064
"IQUIQUE, wilson, anibal pinto",-20.2167578,-70.1528862
"ALTO HOSPICIO, AV. LA PAMPA, AV. RAMON PEREZ OPAZO, 2900.0",-20.2700618,-70.100866
"IQUIQUE, BARROS ARANA, TARAPACA",-20.2175833,-70.1474318
HUARA,-19.995924,-69.7712417
"IQUIQUE, BUGAMBILIAS, LOS GLADIOLOS",-20.2330879,-70.1389157
HUARA,-19.995924,-69.7712417
"IQUIQUE, ZEGERS, 21 DE MAYO",-20.2178506,-70.1419968
POZO ALMONTE,-20.2570503,-69.7857064
"IQUIQUE, LOSE MIGUEL CARRERA, 21 DE MAYO",-20.226596,-70.1425683
POZO ALMONTE,-20.2570503,-69.7857064
"IQUIQUE, ARTURO FERNANDEZ, SGTO. ALDEA",-20.2161264,-70.1441618
"ALTO HOSPICIO, TILIVICHE, 2725.0",-20.2725782,-70.1064197
ALTO HOSPICIO,-20.2686722,-70.1049169
"IQUIQUE, ORELLA, AMUNATEGUI",-20.2206303,-70.146763
"IQUIQUE, ROTONDA EL PAMPINO, MANUEL RODRIGUEZ",-20.2236,-70.1434542
"ALTO HOSPICIO, CALLE 09 CON PJE. 36, 15.0",-20.2686722,-70.1049169
"IQUIQUE, TADEO HAENKE, errazuriz sur",-20.2307033,-70.1356692
POZO ALMONTE,-20.2570503,-69.7857064
"IQUIQUE, SERRANO, OSCAR BONILLA",-20.2141207,-70.1399322
"IQUIQUE, colon, 2556.0",-20.2307033,-70.1356692
"IQUIQUE, INTERIOR TERMINAL AGRO, PUERTA ORIENTE",-20.2307033,-70.1356692
"ALTO HOSPICIO, AV. LAS AMERICAS, 3800.0",-20.2901059,-70.1042119
"IQUIQUE, ORELLA, ARTURO FERNANDEZ",-20.2207652,-70.1443587
"ALTO HOSPICIO, SANTA ROSA DE MOLLE, 2.0",-20.2718999,-70.0889182
"IQUIQUE, HEROES DE LA CONCEPCION, TOMAS BONILLA",-20.2276843,-70.1402925
"ALTO HOSPICIO, AV. LAS AMERICAS, 2580.0",-20.2901059,-70.1042119
"ALTO HOSPICIO, AV. LAS AMERICAS CON AV. SANTA MARIA, 3290.0",-20.2847174,-70.1022289
ALTO HOSPICIO,-20.2686722,-70.1049169
"ALTO HOSPICIO, AV. LAS AMERICAS, 2680.0",-20.2901059,-70.1042119
"IQUIQUE, AVDA. D. PORTALES, DIEGO PORTALES",-20.2307105,-70.1371321
"ALTO HOSPICIO, AV. SANTA MARIA, 4083.0",-20.2842259,-70.0994111
"IQUIQUE, AVDA. PRAT, FTE. CASINO DE JUEGO",-20.2307033,-70.1356692
"ALTO HOSPICIO, LOS AROMOS CON LOS GUINDALES, 3790.0",-20.2652492,-70.1055102
"IQUIQUE, AVDA. A. PRATT, SANTIAGO POLANCO",-20.2466747,-70.1321136
"IQUIQUE, LUIS CRUZ MARTINEZ, VICENTE ZEGERS",-20.2180367,-70.1385098
POZO ALMONTE,-20.2570503,-69.7857064
"IQUIQUE, MOISES GONZALEZ, AVDA. HEROES DE LA CONCEPCION",-20.2103074,-70.1384064
"IQUIQUE, LIBERTAD, OSCAR BONILLA",-20.2194645,-70.1403842
"ALTO HOSPICIO, TILIVICHI, 3033.0",-20.2725782,-70.1064197
"IQUIQUE, GOMEZ CARREÑO, ALMIRANTE MERINO",-20.2333352,-70.1324357
"ALTO HOSPICIO, AV. LOS ALAMOS CON LOS NOGALES, 2790.0",-20.2662507,-70.1025442
"ALTO HOSPICIO, AV. LOS ALAMOS CON LOS NARANJOS, 3290.0",-20.2686722,-70.1049169
"ALTO HOSPICIO, AV. LOS AROMOS, 3990.0",-20.2736545,-70.0937502
"IQUIQUE, AVDA. CAMPOS DEPORTES, JUAN GUIREAUX",-20.2307033,-70.1356692
POZO ALMONTE,-20.2570503,-69.7857064
"IQUIQUE, ARTURO PEREZ CANTO, HERNAN FUENZALIDA",-20.2288673,-70.1384204
"IQUIQUE, AVDA. PLAYA BRAVA, SECTOR DE LOS JUEGOS",-20.2479851,-70.1368551
"IQUIQUE, AVDA LA TIRANA, TADEO HAENKE",-20.2382135,-70.1286667
"IQUIQUE, 3842.0",-20.2307033,-70.1356692
"IQUIQUE, CESPEDES GONZALEZ, VIVAR",-20.2243074,-70.149329
"IQUIQUE, AVDA. HEROES DE LA CONCEPCION, RIQUELME",-20.2265534,-70.1400001
"IQUIQUE, AVDA. HEROES DE LA CONCEPCION, CESPEDES GONZALEZ",-20.2247382,-70.139754
HUARA,-19.995924,-69.7712417
"IQUIQUE, ZEGERS, FCO. ERRAZURIZ",-20.2307033,-70.1356692
PICA,,
ALTO HOSPICIO,-20.2686722,-70.1049169
"IQUIQUE, CALLE 5, AVDA. LA TIRANA",-20.2890618,-70.1259748
PICA,,
"ALTO HOSPICIO, AV. LOS AROMOS CON CALLE LOS NARANJOS, 2390.0",-20.2686722,-70.1049169
POZO ALMONTE,-20.2570503,-69.7857064
"IQUIQUE, SOLDADO PEDRO PRADO, AVDA. RAMON PEREZ OPAZO",-20.2542691,-70.1314071
POZO ALMONTE,-20.2570503,-69.7857064
"IQUIQUE, PILOTO PARDO, AVDA. HEROES DE LA CONCEPCION",-20.2133583,-70.1388275
"IQUIQUE, AVDA. H. DE LA CONCEPCION, THOMPSON",-20.2307033,-70.1356692
"IQUIQUE, AVDA. FCO BILBAO, AVDA. PADRE HURTADO",-20.2616614,-70.129137
"IQUIQUE, SGTO. ALDEA, AVDA. HEROES DE LA CONCEPCION",-20.2163207,-70.1391357
POZO ALMONTE,-20.2570503,-69.7857064
PICA,,
"IQUIQUE, AVDA. P. PRADO, MANUEL BULNES",-20.2201814,-70.1349026
POZO ALMONTE,-20.2570503,-69.7857064
"ALTO HOSPICIO, LOS GUINDALES, CERRO ESMERALDA, 2790.0",-20.2652492,-70.1055102
"ALTO HOSPICIO, AV. LAS AMERICAS, 65.0",-20.2901059,-70.1042119
POZO ALMONTE,-20.2570503,-69.7857064
"IQUIQUE, 1997.0",-20.2307033,-70.1356692
"IQUIQUE, CALLE 5, COLEGIO HISPANO BRITANICO",-20.2651579,-70.1255736
"IQUIQUE, LAS ROZAS, GENARO GALLO",-20.2374219,-70.1391931
ALTO HOSPICIO,-20.2686722,-70.1049169
IQUIQUE,-20.2307033,-70.1356692
"ALTO HOSPICIO, AV. LA PAMPA, AV. LOS CONDORES, 3280.0",-20.2720767,-70.1028957
"ALTO HOSPICIO, AV. LOS AROMOS CON AV. LOS ALAMOS, 3290.0",-20.2686722,-70.1049169
"IQUIQUE, AVDA. DIEGO PORTALES, 21 DE MAYO",-20.2296416,-70.1427763
"IQUIQUE, MAITENES, ORELLA",-20.2213609,-70.1334644
PICA,,
"IQUIQUE, AVDA. H. DE LA CONCEPCION, MANUEL BULNES",-20.2197049,-70.1437707
"IQUIQUE, AVDA. CHIPANA, CERRO DRAGON",-20.2455526,-70.1292691
"IQUIQUE, GENARO GALLO, AVDA. TADEO HEANKE",-20.2394749,-70.1403552
"IQUIQUE, DIEGO PORTALES, LINCOYAN",-20.2306178,-70.1381075
ALTO HOSPICIO,-20.2686722,-70.1049169
"IQUIQUE, GOROSTIAGA, OBISPO LABBE",-20.2164075,-70.1503176
"ALTO HOSPICIO, AV. LA PAMPA CON LOS CONDORES, 2790.0",-20.2720767,-70.1028957
"IQUIQUE, ARTURO FERNANDEZ, CESPEDES GONZALEZ",-20.2245126,-70.1445436
"IQUIQUE, OHIGGINS, ESTACIONAMIENTO CLUB NORTE AMERICA",-20.2183828,-70.1540098
"IQUIQUE, OBISPO LABBE, ORELLA",-20.2203861,-70.1504462
"ALTO HOSPICIO, AV. PAMPA UNION, 3360.0",-20.2759063,-70.1041594
"IQUIQUE, 2680.0",-20.2307033,-70.1356692
"IQUIQUE, AVDA. PRAT, RAMIREZ",-20.2307033,-70.1356692
"IQUIQUE, TADEO HAENKE, RANCAGUA",-20.2402494,-70.131756
"IQUIQUE, LOS GLADIOLOS, GENARO GALLO",-20.2334817,-70.1379182
"ALTO HOSPICIO, AV. SANTA MARIA CON ALFONSINA STORNI, 3270.0",-20.2842961,-70.0985027
"IQUIQUE, AVDA. LA TIRANA, EL MONTE",-20.2543166,-70.1260602
"ALTO HOSPICIO, LOS PEPINOS ESQUINA LOS TUMBOS, 3900.0",-20.2655245,-70.1057571
"IQUIQUE, MAULE, RANCAGUA",-20.2307033,-70.1356692
"ALTO HOSPICIO, AV. LOS ALAMOS CON AV. LOS AROMOS, 3590.0",-20.2662507,-70.1025442
HUARA,-19.995924,-69.7712417
"IQUIQUE, AVDA. LA TIRANA, CASTRO RAMOS",-20.2444412,-70.1282904
"IQUIQUE, 1609.0",-20.2307033,-70.1356692
ALTO HOSPICIO,-20.2686722,-70.1049169
"IQUIQUE, 3682.0",-20.2307033,-70.1356692
POZO ALMONTE,-20.2570503,-69.7857064
PICA,,
ALTO HOSPICIO,-20.2686722,-70.1049169
"ALTO HOSPICIO, AV. CIRCUNVALACION CON CALLE 4, 2790.0",-20.2686722,-70.1049169
"IQUIQUE, AVDA. PRAT, 1670.0",-20.21265,-70.1401344
"IQUIQUE, RANCAGUA, CASTRO RAMOS",-20.2445158,-70.131685
"ALTO HOSPICIO, AV. LOS ALAMOS, LOS ALMENDROS, 3190.0",-20.2662507,-70.1025442
"IQUIQUE, JUAN MARTINEZ, VICENTE SEGERS",-20.2307033,-70.1356692
ALTO HOSPICIO,-20.2686722,-70.1049169
HUARA,-19.995924,-69.7712417
"IQUIQUE, THOMPSON, ARTURO FERNANDEZ",-20.2152276,-70.1441196
"ALTO HOSPICIO, AV. LOS AROMOS CON PJE. SAN FRANCISCO, 3290.0",-20.2686722,-70.1049169
"IQUIQUE, HERNAN FUENZALIDA, ARTURO FERNANDEZ",-20.2285882,-70.144682
"PICA, CARLOS CONDELL ESQUINA GENERAL IBAÑEZ, 0.0",,
"IQUIQUE, AVDA. AEROPUERTO, TADEO HAENKE",-20.2307033,-70.1356692
POZO ALMONTE,-20.2570503,-69.7857064
"IQUIQUE, 21 DE MAYO, ZEGERS",-20.2177736,-70.143625
"IQUIQUE, AVDA. LA TIRANA, CASTRO RAMOS",-20.2444412,-70.1282904
"IQUIQUE, AVDA. LA TIRANA, CASTRO RAMOS",-20.2444412,-70.1282904
"IQUIQUE, PLAYA BRAVA, SALVADOR ALLENDE",-20.2479851,-70.1368551
"IQUIQUE, RUTA A-1, 373.0",-20.2307033,-70.1356692
ALTO HOSPICIO,-20.2686722,-70.1049169
"ALTO HOSPICIO, CANAAN, CALLE 3, 2358.0",-20.2686722,-70.1049169
"ALTO HOSPICIO, LOS ALMENDROS, AV. LOS ALAMOS, 2990.0",-20.2658838,-70.102239
"POZO ALMONTE, SANTA ROSA, 0.0",-20.2553863,-69.7855338
"IQUIQUE, JOSE JOAQUIN PEREZ, AVDA. H. DE LA CONCEPCION",-20.2227166,-70.1417354
ALTO HOSPICIO,-20.2686722,-70.1049169
"IQUIQUE, PATRICIO LYNCH, TARAPACA",-20.2154369,-70.1513951
POZO ALMONTE,-20.2570503,-69.7857064
"ALTO HOSPICIO, CALLE 9, CALLE 3, 1590.0",-20.2686722,-70.1049169
"ALTO HOSPICIO, AV. PAMPA UNION, AV. LA PAMPA, 3400.0",-20.2776152,-70.0986886
"IQUIQUE, JUAN MARTINEZ, SAN MARTIN",-20.2128199,-70.1448148
POZO ALMONTE,-20.2570503,-69.7857064
"POZO ALMONTE, la noria sta ana, 0.0",-20.2570503,-69.7857064
"ALTO HOSPICIO, CALLE EL MIRADOR, 3648.0",-20.2743974,-70.1020451
"IQUIQUE, INTERIOR RECINTO ZOFRI, MANZANA 09 GALPON 62",-20.206958,-70.1404458
POZO ALMONTE,-20.2570503,-69.7857064
POZO ALMONTE,-20.2570503,-69.7857064
"IQUIQUE, AVDA. CASTRO RAMOS, FCO. VERGARA",-20.2451662,-70.1355174
"IQUIQUE, LAS MARGARITAS, GENARO GALLO",-20.2350493,-70.138558
"IQUIQUE, AVDA. LA TIRANA, DIEGO PORTALES",-20.2309225,-70.1284733
"IQUIQUE, AVDA. ARTURO PRAT, SANTIAGO POLANCO",-20.2484469,-70.1381101
"ALTO HOSPICIO, PASAJE GUINEA, 1.0",-20.2871929,-70.1019707
"IQUIQUE, ZEGERS, ARTURO FERNANDEZ",-20.2177479,-70.1442373
"ALTO HOSPICIO, AVENIDA 14, JERICO, 2390.0",-20.2481853,-70.1009137
"IQUIQUE, SGTO. ALDEA, AVDA. HEROES DE LA CONCEPCION",-20.2163207,-70.1391357
"ALTO HOSPICIO, AV. LOS ALAMOS, 2377.0",-20.2662507,-70.1025442
"ALTO HOSPICIO, LOS ALMENDROS, PJE. CHACA, 2980.0",-20.2665891,-70.1018295
"ALTO HOSPICIO, AV. LOS ALAMOS, LOS NARANJOS, 2790.0",-20.2662507,-70.1025442
"IQUIQUE, BARROS ARANA, MANUEL RODRIGUEZ",-20.2234394,-70.1477687
POZO ALMONTE,-20.2570503,-69.7857064
ALTO HOSPICIO,-20.2686722,-70.1049169
"IQUIQUE, SOLDADO P. PRADO, LOS GLADIOLOS",-20.2337606,-70.1362908
"ALTO HOSPICIO, LOS NOGALES, 2455.0",-20.2663191,-70.0996867
"IQUIQUE, 69.0",-20.2307033,-70.1356692
HUARA,-19.995924,-69.7712417
POZO ALMONTE,-20.2570503,-69.7857064
"ALTO HOSPICIO, AV. RAMON PEREZ OPAZO, CALLE SANTA ROSA, 3290.0",-20.2701972,-70.1009113
"IQUIQUE, MANUEL BULNES, PEDRO PRADO",-20.2201814,-70.1349026
"ALTO HOSPICIO, CALLE TRES, CALLE NUEVE, 3450.0",-20.2965306,-70.1090897
POZO ALMONTE,-20.2570503,-69.7857064
"IQUIQUE, HERNAN FUENZALIDA, CASTRO RAMOS",-20.2307033,-70.1356692
"ALTO HOSPICIO, AV. LA PAMPA, 3649.0",-20.2725893,-70.1031146
"IQUIQUE, DIAGONAL FCO. BILBAO, 3860.0",-20.2307033,-70.1356692
HUARA,-19.995924,-69.7712417
"POZO ALMONTE, buen retiro con pampa germania, 0.0",-20.2570852,-69.7845911
"IQUIQUE, AVDA. LA TIRANA, CASTRO RAMOS",-20.2444412,-70.1282904
"IQUIQUE, 2468.0",-20.2307033,-70.1356692
"IQUIQUE, AVDA. LOS HEROES DE LA CONCEPCION, TARAPACA",-20.2111906,-70.1384119
HUARA,-19.995924,-69.7712417
"ALTO HOSPICIO, AV. LA PAMPA, AV. LAS AMERICAS, 3290.0",-20.2725893,-70.1031146
"IQUIQUE, ESMERALDA, BARROS ARANA",-20.2116628,-70.1470863
"IQUIQUE, AVDA. FCO BILBAO, CALLE 01",-20.2307033,-70.1356692
"ALTO HOSPICIO, AV. LAS AMERICAS, 2745.0",-20.2901059,-70.1042119
"ALTO HOSPICIO, CALLE ALTO MOLLE CON PJE. MARIA ENCARNACION, 3670.0",-20.2770148,-70.1020269
"ALTO HOSPICIO, AVENIDA LOS LAGOS, CALLE LA SERENA, 2690.0",-20.2803997,-70.0828714
"IQUIQUE, LAS GAVIOTAS, AVDA. A. PRAT",-20.2307033,-70.1356692
"IQUIQUE, 4300.0",-20.2307033,-70.1356692
HUARA,-19.995924,-69.7712417
"ALTO HOSPICIO, PJE. SANTA EMA CON PJE. SANTA ANGELA, 2390.0",-20.2773271,-70.0954112
"IQUIQUE, DIEGO PORTALES, 12 ORIENTE",-20.2307033,-70.1356692
"IQUIQUE, 21 DE MAYO, ORELLA",-20.2208923,-70.1421601
"ALTO HOSPICIO, LOS AROMOS, RICARDO LAGOS",-20.2686722,-70.1049169
"IQUIQUE, ORELLA, ARTURO FERNANDEZ",-20.2207652,-70.1443587
HUARA,-19.995924,-69.7712417
"IQUIQUE, GOMEZ CARREÑO, CERRO DRAGON",-20.2330057,-70.1302175
"ALTO HOSPICIO, AV. CIRCUNVALACION",-20.2853229,-70.1048561
"IQUIQUE, AVDA. L. BERNARDO OHIGGINS, AVDA. H. DE LA CONCEPCION",-20.2188278,-70.1436951
"IQUIQUE, CESPEDES GONZALEZ, 18 DE SEPTIEMBRE",-20.2245658,-70.1435295
POZO ALMONTE,-20.2570503,-69.7857064
"ALTO HOSPICIO, AV. LOS ALAMOS CON LOS MANZANOS, 3290.0",-20.2653529,-70.1013662
ALTO HOSPICIO,-20.2686722,-70.1049169
"IQUIQUE, ERRAZURIZ, SGTO. ALDEA",-20.2161356,-70.1435283
"IQUIQUE, AVDA. LA TIRANA, CAMPOS DEPORTES",-20.227256,-70.1298393
HUARA,-19.995924,-69.7712417
"ALTO HOSPICIO, AV. LOS CONDORES, 3350.0",-20.2719484,-70.1029629
ALTO HOSPICIO,-20.2686722,-70.1049169
"ALTO HOSPICIO, LOS AVELLANOS, LOS MANGOS, 2990.0",-20.2686722,-70.1049169
"ALTO HOSPICIO, CALLE FRANCIA ESQUINA SUECIA, 77.0",-20.2686722,-70.1049169
"IQUIQUE, AV. LA TIRANA, AVDA. LA TIRANA",-20.2543166,-70.1260602
COLCHANE,-19.2761393,-68.6388049
ALTO HOSPICIO,-20.2686722,-70.1049169
"ALTO HOSPICIO, LOS DAMASCOS, LOS DATILES, 2890.0",-20.2660322,-70.1073856
"ALTO HOSPICIO, AV. RICARDO LAGOS ESQUINA LOS LAGOS, 25.0",-20.2808075,-70.0826969
"IQUIQUE, ARTURO FERNANDEZ, VICENTE ZEGERS",-20.2177736,-70.143625
"IQUIQUE, 151.0",-20.2307033,-70.1356692
"IQUIQUE, GENARO GALLO, THOMPSON",-20.2157202,-70.135764
POZO ALMONTE,-20.2570503,-69.7857064
"IQUIQUE, SOTOMAYOR, SEXTO ORIENTE",-20.2111333,-70.1416166
"ALTO HOSPICIO, AV. LOS AROMOS ESQUINA RAUL ERLICH, 3981.0",-20.273488,-70.0931295
PICA,,
ALTO HOSPICIO,-20.2686722,-70.1049169
"IQUIQUE, AVDA. TADEO HAENKE, ISABEL BONGARDT",-20.2307033,-70.1356692
"ALTO HOSPICIO, AV. RICARDO LAGOS ESQUINA LOS LAGOS, 25.0",-20.2808075,-70.0826969
"IQUIQUE, AVDA. PRAT, VIVAR",-20.2252901,-70.1495495
"IQUIQUE, AVDA. DIEGO PORTALES, COQUIMBO",-20.2309297,-70.1323457
"ALTO HOSPICIO, AV. LOS AROMOS, 3986.0",-20.2736545,-70.0937502
"IQUIQUE, OHIGGINS, VIVAR",-20.218536,-70.1488892
"IQUIQUE, M. CASTRO RAMOS, AVDA. PEDRO PRADO",-20.244863,-70.1334046
"IQUIQUE, 3119.0",-20.2307033,-70.1356692
ALTO HOSPICIO,-20.2686722,-70.1049169
"IQUIQUE, ARTURO FERNANDEZ, LATORRE",-20.2170247,-70.1442119
"IQUIQUE, BARROS ARANA, ESMERALDA",-20.2116628,-70.1470863
"IQUIQUE, ESMERALDA, PATRICIO LYNCH",-20.2154369,-70.1513951
ALTO HOSPICIO,-20.2686722,-70.1049169
"ALTO HOSPICIO, AV, JERICO CON PJE. 5, 2290.0",-20.2494259,-70.1008346
HUARA,-19.995924,-69.7712417
HUARA,-19.995924,-69.7712417
"IQUIQUE, TARAPACA, BARROS ARANAS",-20.2175833,-70.1474318
"ALTO HOSPICIO, GABRIELA MISTRAL, 4307.0",-20.2896028,-70.1064049
"IQUIQUE, OHIGGINS, OBISPO LABBE",-20.2184392,-70.1503783
ALTO HOSPICIO,-20.2686722,-70.1049169
"ALTO HOSPICIO, AV. LOS AROMOS CON CALLE UNO, 2590.0",-20.2686722,-70.1049169
"ALTO HOSPICIO, AV. LOS CONDORES CON R. P. OPAZO, 2790.0",-20.2686722,-70.1049169
"IQUIQUE, FCO. VERGARA, AVDA. PLAYA BRAVA",-20.2479851,-70.1368551
PICA,,
ALTO HOSPICIO,-20.2686722,-70.1049169
"IQUIQUE, AVDA. LA TIRANA, EL MONTE",-20.2543166,-70.1260602
ALTO HOSPICIO,-20.2686722,-70.1049169
"ALTO HOSPICIO, LOS AROMOS RUTA A-16, 3961.0",-20.2590625,-70.0735314
POZO ALMONTE,-20.2570503,-69.7857064
"IQUIQUE, ORELLA, AMUNATEGUI",-20.2206303,-70.146763
"POZO ALMONTE, COMERCIO, 21 DE MAYO",-20.2570503,-69.7857064
"IQUIQUE, AVDA. HEROES DE LA CONCEPCION, CESPEDES GONZALEZ",-20.2247382,-70.139754
POZO ALMONTE,-20.2570503,-69.7857064
"ALTO HOSPICIO, AV. LOS AROMOS, 3961.0",-20.2736545,-70.0937502
"ALTO HOSPICIO, AV. LA PAMPA, 2839.0",-20.2725893,-70.1031146
"IQUIQUE, ARTURO FERNANDEZ, CESPEDES GONZALEZ",-20.2245126,-70.1445436
"IQUIQUE, RANCAGUA, AVDA. CHIPANA",-34.1710586,-70.7351926
"IQUIQUE, CERRO DRAGON, MAULE",-20.2374931,-70.1298787
"ALTO HOSPICIO, AV. GABRIELA MISTRAL CON CALLE VENEZUELA, 2490.0",-20.2889864,-70.1061976
"IQUIQUE, TADEO HAENKE, ISABEL BONGARD",-20.2391223,-70.1414652
"IQUIQUE, AVDA. PRAT, STGO. POLANCO",-20.2466747,-70.1321136
"IQUIQUE, SERRANO, OBISPO LABBE",-20.2132565,-70.150245
"ALTO HOSPICIO, AV. LOS AROMOS, 1790.0",-20.2736545,-70.0937502
"IQUIQUE, 1036.0",-20.2307033,-70.1356692
"ALTO HOSPICIO, pje. continental, 13.0",-20.2857088,-70.1012022
"IQUIQUE, AVDA. COSTANERA, 4775.0",-20.2624201,-70.1306229
"IQUIQUE, OSCAR BONILLA, MOISES GONZALEZ",-20.2099445,-70.1398778
POZO ALMONTE,-20.2570503,-69.7857064
"ALTO HOSPICIO, AV. RAMON PEREZ OPAZO CON AV. LA PAMPA, 2490.0",-20.2700618,-70.100866
"ALTO HOSPICIO, SANTA XIMENA, 1577.0",-20.2783619,-70.0963835
"IQUIQUE, AMUNATEGUI, MANUEL BULNES",-20.2195518,-70.1467191
"ALTO HOSPICIO, TILIVICHE, 3342.0",-20.2725782,-70.1064197
"IQUIQUE, SECTOR BAJO MOLLE, FTE. KAMIKASE",-20.2928084,-70.1200469
"IQUIQUE, AVDA. PLAYA BRAVA, PEDRO GAMBONI",-20.2432281,-70.1385607
"IQUIQUE, AVDA. FCO. BILBAO, AVDA. LA       TIRANA",-20.2691828,-70.1257417
CAMINA,-19.3110655,-69.4269996
"ALTO HOSPICIO, AV. RICARDO LAGOS CON CALLE LOS LAGOS, 2390.0",-20.2808075,-70.0826969
POZO ALMONTE,-20.2570503,-69.7857064
"IQUIQUE, TOMAS BONILLA, AVDA. H. DE LA CONCEPCION",-20.2307033,-70.1356692
"IQUIQUE, AVDA. LA TIRANA, PROGRESO",-20.2543166,-70.1260602
POZO ALMONTE,-20.2570503,-69.7857064
HUARA,-19.995924,-69.7712417
"IQUIQUE, 979.0",-20.2307033,-70.1356692
POZO ALMONTE,-20.2570503,-69.7857064
"IQUIQUE, TADEO HAENCKE, 1200.0",-20.2404198,-70.1372473
"ALTO HOSPICIO, GLADYS MARIN, FRANCIA, 58.0",-20.290769,-70.1008955
"IQUIQUE, OHIGGINS, ARTURO FERNANDEZ",-20.2187948,-70.1443066
"ALTO HOSPICIO, PAMPA UNION ESQUINA LA PAMPA, 2390.0",-20.2776152,-70.0986886
"IQUIQUE, 777.0",-20.2307033,-70.1356692
"ALTO HOSPICIO, UNION EUROPEA ESQUINA FIRLANDIA, 1140.0",-20.2956503,-70.1022103
"ALTO HOSPICIO, LOS ALAMOS ESQUINA ALEX PRIETO, 2050.0",-20.270665,-70.107154
"IQUIQUE, INTERIOR RECINTO AMURALLADO, ZOFRI",-20.2070696,-70.1358118
ALTO HOSPICIO,-20.2686722,-70.1049169
PICA,,
"IQUIQUE, 21 DE MAYO, ZEGERS",-20.2177736,-70.143625
"ALTO HOSPICIO, LOS NOGALES ESQUINA LOS DATILES, 895.0",-20.2620837,-70.1037992
"IQUIQUE, ARTURO PEREZ CANTO, CESPEDES GONZALEZ",-20.2248356,-70.1380641
"IQUIQUE, 3472.0",-20.2307033,-70.1356692
"IQUIQUE, AVDA. LA TIRANA, CAMPOS DEPORTES",-20.227256,-70.1298393
"ALTO HOSPICIO, AVDA. LAS AMERICAS ESQUINA AVDA. SANTA MARIA, 850.0",-20.2847174,-70.1022289
"IQUIQUE, AVDA. LA TIRANA, AVDA. RAMON PEREZ OPAZO",-20.2520595,-70.1267483
PICA,,
"ALTO HOSPICIO, AVDA. 14 ESQUINA AVDA. 15, 560.0",-20.2686722,-70.1049169
"IQUIQUE, 10 ORIENTE, SOTOMAYOR",-20.2170088,-70.1358607
"ALTO HOSPICIO, AVDA. LOS ALAMOS ESQUINA AVDA. LOS CONDORES, 1145.0",-20.2705889,-70.1068267
"IQUIQUE, carmen, 12.0",-20.2307033,-70.1356692
"ALTO HOSPICIO, AVDA.LAS AMERICAS ESQUINA AVDA. SANTA MARIA, 850.0",-20.2847174,-70.1022289
"IQUIQUE, ELEUTERIO RAMIREZ, ZEGERS",-20.2184918,-70.1494876
"IQUIQUE, SGTO. ALDEA, 18-sep",-20.2161654,-70.142953
"IQUIQUE, 2000.0",-20.2307033,-70.1356692
"IQUIQUE, AVDA. LOS HEROES DE LA CONCEPCION, LOS LIRIOS",-20.2342038,-70.1425016
"ALTO HOSPICIO, AVDA. LOS AROMOS ESQUINA AVDA. LOS ALAMOS, 1045.0",-20.2686722,-70.1049169
"IQUIQUE, AVDA. LA TIRANA, BERNARDINO GUERRA",-20.2297783,-70.1290144
"IQUIQUE, AVDA. LA TIRANA, CASTRO RAMOS",-20.2444412,-70.1282904
ALTO HOSPICIO,-20.2686722,-70.1049169
"IQUIQUE, AVDA. A. PRAT, BAQUEDANO",-20.2226052,-70.1521698
POZO ALMONTE,-20.2570503,-69.7857064
"IQUIQUE, VICENTE ZEGERS, 21 DE MAYO",-20.2178506,-70.1419968
"ALTO HOSPICIO, AVDA. LOS AROMOS ESQUINA PJE. LOS NARANJOS, 455.0",-20.2686722,-70.1049169
"IQUIQUE, TARAPACA, BARROS ARANA",-20.2175833,-70.1474318
"IQUIQUE, SERRANO, AVDA. ARTURO PRAT",-20.244478,-70.1410328
"IQUIQUE, AVDA. LA TIRANA, CASTRO RAMOS",-20.2444412,-70.1282904
"ALTO HOSPICIO, PJE. VOLCAN LICANCABUR, 2375.0",-20.2881964,-70.0928198
"IQUIQUE, AVDA. PEDRO PRADO, CALLE TRES",-20.257236,-70.1300274
"POZO ALMONTE, ALDUNATE, 570.0",-20.2582872,-69.7817447
"IQUIQUE, AVDA. OHIGGINS, AVDA. PEDRO PRADO",-20.2193218,-70.1347013
ALTO HOSPICIO,-20.2686722,-70.1049169
"IQUIQUE, PRAT, 12.0",-20.21265,-70.1401344
"IQUIQUE, GENARO GALLO, LOS CLARINES",-20.2339491,-70.1380032
"ALTO HOSPICIO, CALLE ESMERALDA, 2961.0",-20.2690149,-70.1044822
"IQUIQUE, AVDA. PRAT, FRENTE CASINO DE JUEGOS",-20.21265,-70.1401344
PICA,,
HUARA,-19.995924,-69.7712417
"ALTO HOSPICIO, AVDA. LA PAMPA, 3744.0",-20.2725893,-70.1031146
"IQUIQUE, INTERIOR RECINTOS ZOFRI, SECTOR AMURALLADO",-20.206958,-70.1404458
"IQUIQUE, AVDA. PEDRO PRADO, PEDRO GAMBONI",-20.2364664,-70.1360525
"IQUIQUE, TARAPACA, AMUNATEGUI",-20.2176315,-70.1465983
"ALTO HOSPICIO, PJE. LOS PARRONALES ESQUINA LOS GUINDALES, 1107.0",-20.2622777,-70.1027825
"IQUIQUE, AVDA. SOLDADO PEDRO PRADO, PLAYA EL AGUILA",-20.25145,-70.1319383
"IQUIQUE, FERRONOR, AVDA. HEROES DE LA CONCEPCION",-20.2105882,-70.138407
POZO ALMONTE,-20.2570503,-69.7857064
HUARA,-19.995924,-69.7712417
"IQUIQUE, AVDA. HEROES DE LA CONCEPCION, ALMIRANTE LATORRE",-20.2173917,-70.1391838
"ALTO HOSPICIO, PJE. SANTA TERESA, 4114.0",-20.2805208,-70.0905122
POZO ALMONTE,-20.2570503,-69.7857064
"IQUIQUE, 3453.0",-20.2307033,-70.1356692
"ALTO HOSPICIO, CARMEN CARVAJAL, 3007.0",-20.2686722,-70.1049169
ALTO HOSPICIO,-20.2686722,-70.1049169
"ALTO HOSPICIO, AVDA LAS AMERICAS ESQUINA RUTA A-16, 4211.0",-20.2590625,-70.0735314
"ALTO HOSPICIO, AVDA. LA PAMPA ESQUINA CALLE SAN DONATO, 2500.0",-20.2777571,-70.1048131
"IQUIQUE, MANUEL BULNES, ARTURO FERNANDEZ",-20.2196748,-70.1443406
"ALTO HOSPICIO, AV. CIRCUNVALACION ESQUINA SAN PABLO, 4525.0",-20.2686722,-70.1049169
"ALTO HOSPICIO, AVDA. LOS AROMOS ESQUINA CALLE NUEVA, 2330.0",-20.2736545,-70.0937502
PICA,,
ALTO HOSPICIO,-20.2686722,-70.1049169
"IQUIQUE, CESPEDES GONZALEZ, ARTURO FERNANDEZ",-20.2245126,-70.1445436
"ALTO HOSPICIO, AVDA. LAS AMERICAS ESQUINA PJE. CHACA, 2245.0",-20.2901059,-70.1042119
"IQUIQUE, ORELLA, RAMIREZ",-20.2204813,-70.149581
"IQUIQUE, AVDA. A  PRAT, AVDA. AEROPUERTO",-20.2307033,-70.1356692
"IQUIQUE, 2190.0",-20.2307033,-70.1356692
"IQUIQUE, LATORRE, 21 DE MAYO",-20.2170705,-70.1435776
"ALTO HOSPICIO, AVDA. LAS AMERICAS ESQUINA CALLE ISABEL RIQUELME, 2248.0",-20.2824421,-70.10138
"ALTO HOSPICIO, CALLE tELEVICHI, 1156.0",-20.2686722,-70.1049169
"IQUIQUE, CESPEDES GONZALEZ, GENARO GALLO",-20.2249004,-70.1370717
IQUIQUE,-20.2307033,-70.1356692
ALTO HOSPICIO,-20.2686722,-70.1049169
"IQUIQUE, RAMIREZ, ORELLA",-20.2204813,-70.149581
"ALTO HOSPICIO, AVDA. MONTE LOS OLIVOS ESQUINA LAGUAN SAN RAFAEL, 215.0",-20.2686722,-70.1049169
"IQUIQUE, manuel rodriguez, Juan Martinez",-20.2234909,-70.1458415
"ALTO HOSPICIO, PEÑA RETIRO, 3553.0",-20.2774149,-70.1081117
"ALTO HOSPICIO, SIBAYA, 2821.0",-20.2670261,-70.1097378
"IQUIQUE, Serrano, 21 de Mayo",-20.2139275,-70.1415571
"IQUIQUE, PLAYA BRAVA, CASTRO RAMOS",-20.2455677,-70.1374529
"IQUIQUE, AVDA. TADEO HAENKE, AVDA. HEROES DE LA CONCEPCION",-20.2379949,-70.1442259
IQUIQUE,-20.2307033,-70.1356692
IQUIQUE,-20.2307033,-70.1356692
"ALTO HOSPICIO, ACDA. LOS ALAMOS ESQUINA CALLE LOS NOGALES, 2255.0",-20.2662507,-70.1025442
"IQUIQUE, TADEO HAENKE, 1115.0",-20.2404198,-70.1372473
"IQUIQUE, HEROES DE LA CONCEPCION, SOTOMAYOR",-20.2111906,-70.1384119
"IQUIQUE, AMUNATEGUI, 1854.0",-20.2176315,-70.1465983
"IQUIQUE, SOTOMAYOR, ARTURO PRAT",-20.2111333,-70.1416166
"IQUIQUE, ARTURO PRAT, 2752.0",-20.2484469,-70.1381101
"IQUIQUE, RANCAGUA, 3201.0",-34.1740849,-70.7569768
"IQUIQUE, GOMEZ CARREÑO, PEDRO DE VALDIVIA",-20.2329027,-70.133599
"IQUIQUE, PLAYA BLANCA, PLAYA EL AGUILA",-20.251327,-70.1314193
"PICA, calle collahuasi, 20.0",,
"IQUIQUE, santa coloma de farnes, SIN NOMBRE",41.8611741,2.6635017
POZO ALMONTE,-20.2570503,-69.7857064
IQUIQUE,-20.2307033,-70.1356692
"IQUIQUE, ARTURO PRAT, GENARO GALLO",-20.2431573,-70.1421653
HUARA,-19.995924,-69.7712417
"POZO ALMONTE, comercio, 630.0",-20.2570503,-69.7857064
"IQUIQUE, DIEGO PORTALES, ESPAÑA",-20.2307033,-70.1356692
"IQUIQUE, zegers, ARTURO FERNANDEZ",-20.2177479,-70.1442373
POZO ALMONTE,-20.2570503,-69.7857064
"IQUIQUE, ESMARALDA, VIVAR",-20.2115901,-70.1484112
POZO ALMONTE,-20.2570503,-69.7857064
"IQUIQUE, ZEGER, RAMIREZ",-20.2177736,-70.143625
ALTO HOSPICIO,-20.2686722,-70.1049169
"POZO ALMONTE, CANCHA LOS VIEJOS CRACK, 1.0",-20.2570503,-69.7857064
PICA,,
"IQUIQUE, LA TIRANA, 4802.0",-20.2307033,-70.1356692
HUARA,-19.995924,-69.7712417
"PICA, calle collhuasi, 22.0",,
"ALTO HOSPICIO, CALLE SAN DONATO ESQUINA SALITRERA PORVENIR, 3320.0",-20.279224,-70.1052977
ALTO HOSPICIO,-20.2686722,-70.1049169
"ALTO HOSPICIO, CALLE EL MIRADOR ESQUINA SAN DONATO, 3321.0",-20.2739042,-70.1038343
ALTO HOSPICIO,-20.2686722,-70.1049169
HUARA,-19.995924,-69.7712417
POZO ALMONTE,-20.2570503,-69.7857064
"ALTO HOSPICIO, LOS AROMOS, 3961.0",-20.2556598,-70.1069637
"IQUIQUE, 18 DE SEPTIEMBRE, BULNES",-20.2197336,-70.1431759
"IQUIQUE, GENARO GALLO, LAS MAGNOLIAS",-20.2363799,-70.1392149
"IQUIQUE, JORGE BARRERA, ARTURO PRAT",-20.2307033,-70.1356692
"ALTO HOSPICIO, CALLE LOS AROMOS, 3034.0",-20.2556598,-70.1069637
"IQUIQUE, ARTURO FERNANDEZ, CESPEDEZ Y GONZALEZ",-20.2245126,-70.1445436
ALTO HOSPICIO,-20.2686722,-70.1049169
"IQUIQUE, PUEBLO NUEVO, 1062.0",-20.2175553,-70.1365889
"ALTO HOSPICIO, PJE. LOS TAMARUGOS ESQUINA LOS NARANJOS, 2025.0",-20.2686722,-70.1049169
"IQUIQUE, CASTRO RAMOS, ARTURO FERNANDEZ",-20.2187948,-70.1443066
"IQUIQUE, SOTOMAYOR, PATRICIO LYNCH",-20.2109436,-70.151012
"ALTO HOSPICIO, PJE. SALITRERA IRIS ESQUINA PJE. LOS PERALES, 3318.0",-20.2686722,-70.1049169
"IQUIQUE, LA CONCORDIA, GENARO GALLO",-20.2385919,-70.1400282
"ALTO HOSPICIO, CALLE 1 ESQUINA PJE.1, 2560.0",-20.2605607,-70.1041259
"ALTO HOSPICIO, PJE. JAZPAMPA ESQUINA AVDA. LOS ALAMOS, 520.0",-20.2714542,-70.1081617
POZO ALMONTE,-20.2570503,-69.7857064
"POZO ALMONTE, COMERCIO/21 DE MAYO, 10.0",-20.2570503,-69.7857064
"IQUIQUE, ARTURO FERNANDEZ, CESPEDEZ Y GONZALEZ",-20.2245126,-70.1445436
"ALTO HOSPICIO, AVDA. LAS AMERICAS ESQUINA FIRLANDIA, 3354.0",-20.2901059,-70.1042119
ALTO HOSPICIO,-20.2686722,-70.1049169
"IQUIQUE, OHIGGINS, ANIBAL PINTO",-20.2182824,-70.1529419
ALTO HOSPICIO,-20.2686722,-70.1049169
"IQUIQUE, ORELLA, ARTURO PEREZ CANTO",-20.2211368,-70.1377023
"IQUIQUE, ARTURO FERNANDEZ, ZEGERS",-20.2307033,-70.1356692
"IQUIQUE, LAS ROSAS, PEDRO PRADO",-20.2384295,-70.1348415
"IQUIQUE, BARRANQUILLA, INTERIOR ZOFRI",-20.2075821,-70.1340093
ALTO HOSPICIO,-20.2686722,-70.1049169
"IQUIQUE, DIAGONAL BILBAO, BAJO MOLLE",-20.2307033,-70.1356692
"ALTO HOSPICIO, AVDA. LAS PARCELAS, 2215.0",-20.2753339,-70.0908506
"ALTO HOSPICIO, LOS GUINDALES ESQUINA AVDA. CERRO ESMERALDA, 2514.0",-20.2652492,-70.1055102
"ALTO HOSPICIO, AVDA. CERRO ESMERALDA ESQUINA LOS GUINDALES, 2558.0",-20.266942,-70.1070489
"IQUIQUE, FRANCISCO BILBAO, PADRE HURTADO",-20.2616614,-70.129137
POZO ALMONTE,-20.2570503,-69.7857064
"ALTO HOSPICIO, JUANITA FERNANDEZ ESQUINA FRESIA, 155.0",-20.2686722,-70.1049169
"ALTO HOSPICIO, AVDA. LA PAMPA ESQUINA CIRCUNVALACIÓN, 3560.0",-20.2725893,-70.1031146
ALTO HOSPICIO,-20.2686722,-70.1049169
"IQUIQUE, PJE. LOS CHUNCHOS, 3577.0",-20.2541857,-70.1254935
"ALTO HOSPICIO, RAMON PEREZ OPAZO, 3080.0",-20.2701972,-70.1009113
"ALTO HOSPICIO, AVDA. SANTA ROSA DE MOLLE ESQUINA AVDA. LAS AMERICAS, 3322.0",-20.2800359,-70.1006794
"IQUIQUE, SERRANO, ERRAZURIZ",-20.2138148,-70.1431966
"IQUIQUE, serrano, 1145.0",-20.2138472,-70.1440474
"ALTO HOSPICIO, PJE. AGUA SANTA ESQUINA PJE. CHAPIQUIDA, 256.0",-20.2686722,-70.1049169
HUARA,-19.995924,-69.7712417
POZO ALMONTE,-20.2570503,-69.7857064
"ALTO HOSPICIO, CALLE LOS GUINDALES ESQUINA AVDA. LOS AROMOS, 482.0",-20.2652492,-70.1055102
"ALTO HOSPICIO, AVDA. LA PAMPA ESQUINA ALTO MOLLE, 2548.0",-20.2786416,-70.1023212
"IQUIQUE, AVDA. H. DE LA CONCEPCION, AVDA TADEO HAENKE",-20.2404198,-70.1372473
"ALTO HOSPICIO, TILIVICHE, LOS ALAMOS",-20.2686722,-70.1049169
"ALTO HOSPICIO, LOS AROMOS, 2945.0",-20.2556598,-70.1069637
ALTO HOSPICIO,-20.2686722,-70.1049169
POZO ALMONTE,-20.2570503,-69.7857064
"IQUIQUE, ZEGERS, 21 DE MAYO",-20.2178506,-70.1419968
"IQUIQUE, AVDA. ARTURO PRAT, AVDA. AEROPUERTO",-20.2307033,-70.1356692
"ALTO HOSPICIO, NACIONES UNIDAS, LAS AMERICAS",-20.2686722,-70.1049169
ALTO HOSPICIO,-20.2686722,-70.1049169
ALTO HOSPICIO,-20.2686722,-70.1049169
CAMINA,-19.3110655,-69.4269996
ALTO HOSPICIO,-20.2686722,-70.1049169
"ALTO HOSPICIO, LOS AROMOS, LOS ALAMOS",-20.2633566,-70.0990273
"ALTO HOSPICIO, LOS ALAMOS, CERRO ESMERALDA",-20.2721122,-70.1000249
"ALTO HOSPICIO, LA PAMPA, 3770.0",-20.2686722,-70.1049169
"IQUIQUE, SAN MARTIN, 774.0",-20.212678,-70.1481829
"ALTO HOSPICIO, LAS AMERICAS, SANTA MARIA",-20.2847174,-70.1022289
"IQUIQUE, MANUEL BULNES, LUIS CRUZ MARTINEZ",-20.2199822,-70.1386986
"IQUIQUE, AVDA. SALVADOR ALLENDE, THOMPSON",-20.2307033,-70.1356692
"IQUIQUE, GOROSTIAGA, VIVAR",-20.2171999,-70.1487663
"ALTO HOSPICIO, LAS AMERICAS, 4021.0",-20.2901059,-70.1042119
HUARA,-19.995924,-69.7712417
"IQUIQUE, AVDA. SALVADOR ALLENDE, ORELLA",-20.2212841,-70.1348904
"IQUIQUE, LUIS JASPARD, AVDA. CIRCUNVALACION",-20.2080995,-70.1297933
"ALTO HOSPICIO, SAN DONATO, SANTA ROSA",-20.2768172,-70.1044794
"ALTO HOSPICIO, LOS ALAMOS, 3186.0",-20.2647901,-70.1009647
"IQUIQUE, AVDA. TADEO HAENKE, ERRAZURIZ",-20.2404198,-70.1372473
"POZO ALMONTE, ALIANZA ESQ. ALDUNATE, 0.0",-20.2582872,-69.7817447
"ALTO HOSPICIO, LOS GUINDALES, RAMON PEREZ OPAZO",-20.2647266,-70.1050322
"IQUIQUE, MANUEL BALMACEDA, FCO. BILBAO",-20.2645538,-70.1242542
"ALTO HOSPICIO, SAN AGUSTIN, 3516.0",-20.2686722,-70.1049169
"ALTO HOSPICIO, SANTA JIMENA, SANTA ROSA DE HUARA",-20.2714519,-70.0879295
"ALTO HOSPICIO, LAS AMERICAS, SANTA MARIA",-20.2847174,-70.1022289
"IQUIQUE, RUTA A-1, AEROPUERTO DIEGO ARACENA",-20.2307033,-70.1356692
"ALTO HOSPICIO, EL SALITRE, 3307.0",-20.2686722,-70.1049169
POZO ALMONTE,-20.2570503,-69.7857064
"IQUIQUE, AVDA. CIRCUNVALACION, SIBERIA",-20.2088203,-70.1297126
"IQUIQUE, ORELLA, OBISPO LABBE",-20.2203861,-70.1504462
"ALTO HOSPICIO, RAMON PEREZ OPAZO, LOS TAMARUGOS",-20.2683502,-70.1019814
"ALTO HOSPICIO, RICARDO LAGOS, ANTOFAGASTA",-23.6509279,-70.3975022
"IQUIQUE, AVDA. PRAT, PADRE HURTADO",-33.5706582,-70.8057546
"IQUIQUE, LATORRE, VIVAR",-20.2163419,-70.1486993
"IQUIQUE, AVDA. PRAT, RAMIREZ",-20.2307033,-70.1356692
"IQUIQUE, AMUNATEGUI, BULNES",-20.2195518,-70.1467191
"ALTO HOSPICIO, SANTA MARIA, LAS AMERICAS",-20.2847174,-70.1022289
"IQUIQUE, ALMIRANTE  LATORRE, AVDA. H. DE LA CONCEPCION",-20.2170705,-70.1435776
POZO ALMONTE,-20.2570503,-69.7857064
"IQUIQUE, RUTA A-16, CONTROL ACCESO ORIENTE",-20.2585155,-70.0726409
"IQUIQUE, RANCAGUA, PLAYA BLANCA",-20.2485799,-70.1307633
POZO ALMONTE,-20.2570503,-69.7857064
"IQUIQUE, CESPEDES GONZALEZ, AVDA. PEDRO PRADO",-20.2250238,-70.1352451
HUARA,-19.995924,-69.7712417
PICA,,
HUARA,-19.995924,-69.7712417
HUARA,-19.995924,-69.7712417
"IQUIQUE, MANUEL BULNES, ARTURO FERNANDEZ",-20.2196748,-70.1443406
"IQUIQUE, AVDA. LA TIRANA, 1452.0",-20.2543166,-70.1260602
"IQUIQUE, AMUNATEGUI, DESIDERIO GARCIA",-20.2095067,-70.1457351
HUARA,-19.995924,-69.7712417
"POZO ALMONTE, ALIANZA ESQ. ALDUNATE, 0.0",-20.2582872,-69.7817447
ALTO HOSPICIO,-20.2686722,-70.1049169
"IQUIQUE, AVDA. TADEO HAENKE, CERRO DRAGON",-20.2386682,-70.1296108
"IQUIQUE, AVDA. ARTURO PRAT, PUERTA CHICA",-20.2065187,-70.1463349
"ALTO HOSPICIO, RUTA A-616, JERICO",-20.2686722,-70.1049169
"ALTO HOSPICIO, SANTA INES, 4206.0",-20.2686722,-70.1049169
"ALTO HOSPICIO, SAN DONATO, CALLE DOS",-20.2748883,-70.1038276
"IQUIQUE, AVDA. TADEO HAENKE, GENARO GALLO",-20.2394749,-70.1403552
IQUIQUE,-20.2307033,-70.1356692
"IQUIQUE, AVDA. LA TIRANA, EL MONTE",-20.2543166,-70.1260602
"IQUIQUE, SOTOMAYOR, 2000.0",-20.2111333,-70.1416166
"IQUIQUE, AVDA. A. PRAT, GENARO GALLO",-20.2431573,-70.1421653
"IQUIQUE, AVDA. P. HURTADO, AVDA. FCO BILBAO",-20.2616614,-70.129137
"IQUIQUE, TADEO HAENKE, 1312.0",-20.2404198,-70.1372473
"IQUIQUE, PLAYA BLANCA, PEDRO GAMBONI",-20.2404258,-70.1374811
"IQUIQUE, LAS CABRAS, OSCAR BONILLA",-20.2194645,-70.1403842
"IQUIQUE, AVDA. TADEO HAENKE, PEDRO GAMBONI",-20.2403508,-70.1374555
"IQUIQUE, ESMERALDA, ELEUTERIO RAMIREZ",-20.2184918,-70.1494876
"IQUIQUE, RANCAGUA, 3379.0",-34.1740849,-70.7569768
"IQUIQUE, AV. PRAT, 4311.0",-20.244478,-70.1410328
ALTO HOSPICIO,-20.2686722,-70.1049169
"IQUIQUE, AVDA. PRAT, LOS MOLLES",-20.2307033,-70.1356692
"ALTO HOSPICIO, AV. LOS CONDORES, AV. RAMON PEREZ OPAZO",-20.272945,-70.1005126
HUARA,-19.995924,-69.7712417
"IQUIQUE, AVDA. CIRCUNVALACION, LUIS JASPARD",-20.2080995,-70.1297933
"IQUIQUE, AVDA. H. DE LA CONCEPCION, ORELLA",-20.2307033,-70.1356692
HUARA,-19.995924,-69.7712417
"ALTO HOSPICIO, PASAJE CINCO, AV. LA PAMPA",-20.273443,-70.1052633
ALTO HOSPICIO,-20.2686722,-70.1049169
POZO ALMONTE,-20.2570503,-69.7857064
"ALTO HOSPICIO, GLADYS MARIN, FRANCIA",-20.290769,-70.1008955
"IQUIQUE, ESPAÑA, HERNAN   FUENZALIDA",-20.2307033,-70.1356692
ALTO HOSPICIO,-20.2686722,-70.1049169
"IQUIQUE, ORELLA, 21 DE MAYO",-20.2208923,-70.1421601
"ALTO HOSPICIO, CALLE DOS, EL MIRADOR",-20.2763565,-70.1001686
"ALTO HOSPICIO, ESPERANZA, 20.0",-20.2686722,-70.1049169
"ALTO HOSPICIO, CALLE CUATRO, JERUSALEM",-20.2686722,-70.1049169
ALTO HOSPICIO,-20.2686722,-70.1049169
"IQUIQUE, AMUNATEGUI, TOMAS BONILLA",-20.2274009,-70.147132
"ALTO HOSPICIO, AV. LAS AMERICAS, A-16",-20.2901059,-70.1042119
PICA,,
POZO ALMONTE,-20.2570503,-69.7857064
"ALTO HOSPICIO, LOS AROMOS, SALITRERA LAGUNAS",-20.2708871,-70.1004936
ALTO HOSPICIO,-20.2686722,-70.1049169
PICA,,
"IQUIQUE, SAN MARTIN, 880.0",-20.212678,-70.1481829
"IQUIQUE, ROTONDA EL PAMPINO, AVDA. LA TIRANA",-20.2208561,-70.1319844
"IQUIQUE, GENARO GALLO, LAS ROZAS",-20.2373067,-70.139562
POZO ALMONTE,-20.2570503,-69.7857064
IQUIQUE,-20.2307033,-70.1356692
POZO ALMONTE,-20.2570503,-69.7857064
"IQUIQUE, AVDA. PEDRO PRADO, AVDA. M. BULNES",-20.2201814,-70.1349026
HUARA,-19.995924,-69.7712417
"IQUIQUE, GENARO GALLO, HERNAN FUENZALIDA",-20.2289249,-70.137476
ALTO HOSPICIO,-20.2686722,-70.1049169
"IQUIQUE, AVDA. P. PRADO., COLEGIO CROACIA",-20.2273547,-70.1350917
POZO ALMONTE,-20.2570503,-69.7857064
"ALTO HOSPICIO, ALEMANIA, AMERICAS",-20.2925369,-70.1015671
"IQUIQUE, PASAJE MATILLA, 3454.0",-20.251591,-70.1239736
IQUIQUE,-20.2307033,-70.1356692
"IQUIQUE, THOMPSON, GENARO GALLO",-20.2157202,-70.135764
ALTO HOSPICIO,-20.2686722,-70.1049169
"ALTO HOSPICIO, SANTA ISABEL, 3627.0",-20.2748883,-70.1038276
"ALTO HOSPICIO, PJE. TALCAHUANO, 4522.0",-20.2763628,-70.0808842
HUARA,-19.995924,-69.7712417
"POZO ALMONTE, oscar caqueo/hector basualto, 0.0",-20.264391,-69.7796037
"IQUIQUE, AVDA. FCO. BILBAO, 5  NORTE",-20.2617337,-70.1290955
"IQUIQUE, SOTOMAYOR, AMUNATEGUI",-20.2109195,-70.1459124
ALTO HOSPICIO,-20.2686722,-70.1049169
"ALTO HOSPICIO, CIRCUNVALACION, GUINDALES",-20.2652492,-70.1055102
"IQUIQUE, DIEGO PORTALES, 1344.0",-20.2306665,-70.1371297
POZO ALMONTE,-20.2570503,-69.7857064
"IQUIQUE, VIVAR, 930.0",-20.218536,-70.1488892
ALTO HOSPICIO,-20.2686722,-70.1049169
"IQUIQUE, JUAN MARTINEZ, 2002.0",-20.2193478,-70.1454167
"IQUIQUE, SAN MARTIN, 736.0",-20.2307033,-70.1356692
"IQUIQUE, AVDA. FRANCISCO VERGARA, 3885.0",-20.2487975,-70.1346724
"IQUIQUE, AVDA. HEROES DE LA CONCEPCION, DIEGO PORTALES",-20.2301432,-70.1411798
"IQUIQUE, AVDA. CIRCUNVALACION, 56.0",-20.2063726,-70.1306179
"ALTO HOSPICIO, RAMON PEREZ OPAZO, AV. LA PAMPA",-20.2700618,-70.100866
"IQUIQUE, SOLDADO PEDRO PRADO, TOMAS BONILLA",-20.2279008,-70.1354882
HUARA,-19.995924,-69.7712417
"CAMINA, CAMINO A SOGA, 60000.0",,
POZO ALMONTE,-20.2570503,-69.7857064
"ALTO HOSPICIO, RAMON PEREZ OPAZO, 3262.0",-20.2701972,-70.1009113
ALTO HOSPICIO,-20.2686722,-70.1049169
"IQUIQUE, PATRICIO LYNCH, SOTOMAYOR",-20.2154369,-70.1513951
HUARA,-19.995924,-69.7712417
"ALTO HOSPICIO, RAMON PEREZ OPAZO, CHACA",-20.2692348,-70.1013055
"ALTO HOSPICIO, FINLANDIA, MANZANA  71 FRENTE SITIO, 6.0",-20.296067,-70.1052351
"IQUIQUE, ZAPIGA, 2217.0",-20.2426193,-70.1350721
"IQUIQUE, COLO-COLO, HERNAN FUENZALIDA",-20.2289498,-70.1369628
CAMINA,-19.3110655,-69.4269996
ALTO HOSPICIO,-20.2686722,-70.1049169
"IQUIQUE, MANUEL RODRIGUEZ, OBISPO LABBE",-20.2233179,-70.1505699
"IQUIQUE, GENARO GALLO, JOSE MIGUEL CARRERA",-20.2268367,-70.1372722
"ALTO HOSPICIO, ALEMANIA, GLADYS MARIN",-20.2925369,-70.1015671
"IQUIQUE, SHAHONM, HONG- KONG",-20.2307033,-70.1356692
"IQUIQUE, AVDA. PRAT, LOS MOLLES",-20.2307033,-70.1356692
POZO ALMONTE,-20.2570503,-69.7857064
"IQUIQUE, CIRCUNVALACION, SOTOMAYOR",-20.2111333,-70.1416166
"IQUIQUE, SAN MARTIN, 18 DE SEPTIEMBRE",-20.212678,-70.1481829
"ALTO HOSPICIO, CALLE UNO, PASAJE TRES",-20.2570281,-70.1071808
"ALTO HOSPICIO, PAMPA UNION, LA PAMPA",-20.2686722,-70.1049169
ALTO HOSPICIO,-20.2686722,-70.1049169
"IQUIQUE, AVDA. FCO. BILBAO, PADRE HURTADO",-20.2616614,-70.129137
POZO ALMONTE,-20.2570503,-69.7857064
ALTO HOSPICIO,-20.2686722,-70.1049169
"IQUIQUE, BARROS ARANA, MANUEL RODRIGUEZ",-20.2234394,-70.1477687
"IQUIQUE, AVDA. CERRO DRAGON, 2474.0",-20.2455526,-70.1292691
"ALTO HOSPICIO, AV. CUATRO, NORMANDIA",-20.2686722,-70.1049169
"IQUIQUE, AVDA. H. DE LA CONCEPCION, MANUEL RODRIGUEZ",-20.2236,-70.1434542
"IQUIQUE, AVDA. VIAL LOCAL 4, SITIO 1",-20.2307033,-70.1356692
"ALTO HOSPICIO, AV. LA PAMPA, 3691.0",-20.2725893,-70.1031146
"IQUIQUE, AVDA. LA TIRANA, SANTA ELENA",-20.2543166,-70.1260602
"ALTO HOSPICIO, MADAGASCAR MANZANA 15 FRENTE SITIO, 17.0",-20.2686722,-70.1049169
"ALTO HOSPICIO, POLONIA, SUIZA",-20.2935591,-70.104376
ALTO HOSPICIO,-20.2686722,-70.1049169
POZO ALMONTE,-20.2570503,-69.7857064
"IQUIQUE, PATRICIO LYNCH, SOTOMAYOR",-20.2154369,-70.1513951
"IQUIQUE, AVDA. FCO. BILBAO., 4806.0",-20.2617337,-70.1290955
"IQUIQUE, AVDA. FRANCISCO BILBAO, 4138.0",-20.2617337,-70.1290955
"ALTO HOSPICIO, LAS PARCELAS, 43.0",-20.2686722,-70.1049169
"IQUIQUE, JUAN MARTINEZ, SAN MARTIN",-20.2128199,-70.1448148
"IQUIQUE, AVDA. PLAYA BRAVA, STGO. POLANCO",-20.2478923,-70.1368759
POZO ALMONTE,-20.2570503,-69.7857064
"IQUIQUE, MANUEL RODRIGUEZ, ARTURO PEREZ CANTO",-20.2238191,-70.1379526
"ALTO HOSPICIO, LOS ALAMOS, ESMERALDA",-20.2686722,-70.1049169
ALTO HOSPICIO,-20.2686722,-70.1049169
"IQUIQUE, ARTURO FERNANDEZ, ZEGERS",-20.2307033,-70.1356692
"IQUIQUE, AVDA. FRANCISCO BILBAO, 3233.0",-20.2617337,-70.1290955
"IQUIQUE, ANIBAL PINTO, THOMPSON",-20.2144119,-70.1528609
"ALTO HOSPICIO, AV. LAS AMERICAS, SANTA MARIA",-20.2686722,-70.1049169
"ALTO HOSPICIO, LOS AROMOS, LOS DATILES",-20.2602461,-70.1029932
"IQUIQUE, AV CIRCUNVALACION, ROTONDA EL PAMPINO",-20.2208561,-70.1319844
"ALTO HOSPICIO, NACIONES UNIDAS, SUECIA",60.128161,18.643501
"IQUIQUE, ORELLA, VIVAR",-20.2205113,-70.149037
PICA,,
HUARA,-19.995924,-69.7712417
POZO ALMONTE,-20.2570503,-69.7857064
"IQUIQUE, AVDA. LA TIRANA, CENTRO DEP. UNIVERSIDAD DEL MAR",-20.2543166,-70.1260602
POZO ALMONTE,-20.2570503,-69.7857064
"ALTO HOSPICIO, RAMON PEREZ OPAZO, LOS DATILES",-20.2642587,-70.1057858
"IQUIQUE, BUGAVILIAS, TADEO HEANKE",-20.2307033,-70.1356692
"IQUIQUE, OHIGGINS, ERRAZURIZ",-20.2188278,-70.1436951
"IQUIQUE, AVDA. P. PRADO, J. M. CARRERA",-20.2307033,-70.1356692
"ALTO HOSPICIO, LOS AROMOS, EL SALITRE",-20.2705558,-70.0945973
"IQUIQUE, SGTO,. ALDEA, AVDA. H. DE LA CONCEPCION",-20.2162049,-70.1418754
"IQUIQUE, ARTURO FERNANDEZ, ZEGERS",-20.2307033,-70.1356692
POZO ALMONTE,-20.2570503,-69.7857064
"IQUIQUE, EL CARMELO, 3231.0",-20.2481783,-70.1256408
"IQUIQUE, PLAYA BLANCA, RUTA A-1",-20.2485799,-70.1307633
POZO ALMONTE,-20.2570503,-69.7857064
"IQUIQUE, PATRICIO LYNCH, RIQUELME",-20.2212074,-70.1515192
"IQUIQUE, ORELLA, ARTURO FERNANDEZ",-20.2207652,-70.1443587
IQUIQUE,-20.2307033,-70.1356692
ALTO HOSPICIO,-20.2686722,-70.1049169
"IQUIQUE, AVDA. H. DE LA CONCEPCION, J. J. PEREZ",-20.2227166,-70.1417354
POZO ALMONTE,-20.2570503,-69.7857064
"IQUIQUE, AVDA. FRANCISCO BILBAO, 3200.0",-20.2617337,-70.1290955
"ALTO HOSPICIO, LOS NOGALES, LOS DATILES",-20.2620837,-70.1037992
"IQUIQUE, LAS ROZAS, 1864.0",-20.2307033,-70.1356692
"IQUIQUE, AVDA. PRAT, ROTONDA CHIPANA",-20.2307033,-70.1356692
"IQUIQUE, CUARTA SUR, 2596.0",-20.2735545,-70.12525
"IQUIQUE, AVDA. PRAT, SECOR DISCOTEQUE LIVERPOL",-20.2307033,-70.1356692
"IQUIQUE, AVDA. FCO.VERGARA, STGO POLANCO",-20.2471645,-70.1350603
"ALTO HOSPICIO, LAS AMERICAS, CARMELA CARVAJAL",-20.2800542,-70.1007563
"IQUIQUE, AVDA. PLAYA BRAVA, AVDA. AEROPUERTO",-20.2307033,-70.1356692
"ALTO HOSPICIO, CIRCUNVALACION, LOS GUINDALES",-20.2652492,-70.1055102
"IQUIQUE, AVDA. BILBAO, AVDA. P. HURTADO",-20.2616614,-70.129137
"IQUIQUE, ROTONDA EL PAMPINO, BULNES",-20.2307033,-70.1356692
"ALTO HOSPICIO, LOS GUINDALES, LOS LIMONEROS",-20.2619648,-70.1024486
"IQUIQUE, AVDA. CERRO DRAGON, AVDA. PADRE HURTADO",-20.2603655,-70.1270142
"IQUIQUE, AVDA. LA TIRANA, SANTA ELENA",-20.2543166,-70.1260602
"ALTO HOSPICIO, PORTUGAL, SUECIA",60.128161,18.643501
"IQUIQUE, AVDA. LA TIRANA, LAS ACACIAS",-20.2543166,-70.1260602
"ALTO HOSPICIO, LAS PARCELAS, LOS ALAMOS",-20.2686722,-70.1049169
"IQUIQUE, MAULE, RANCAGUA",-20.2307033,-70.1356692
"IQUIQUE, AVDA. LA TIRANA, EDO. FREI",-20.2543166,-70.1260602
POZO ALMONTE,-20.2570503,-69.7857064
"ALTO HOSPICIO, A-16, LAS AMERICAS",-20.2868313,-70.1029781
"ALTO HOSPICIO, RICARDO LAGOS, IQUIQUE",-20.2815054,-70.0846839
"IQUIQUE, AVDA. A. PRAT, 6TA. DIVISION EJERCITO",-20.2484469,-70.1381101
"ALTO HOSPICIO, RICARDO LAGOS, LOS LAGOS",-20.2808075,-70.0826969
"ALTO HOSPICIO, LAS AMERICAS, CANADA",56.130366,-106.346771
"IQUIQUE, SGTO. ALDEA, BARROS ARANA",-20.2160002,-70.1472917
COLCHANE,-19.2761393,-68.6388049
"IQUIQUE, INTERIOR RECINTO AMURALLADO, ZONA FRANCA",-20.2070696,-70.1358118
"IQUIQUE, AVDA. PRAT, 3455.0",-20.21265,-70.1401344
"IQUIQUE, AVDA. PRAT, SAGASCA",-20.21265,-70.1401344
"ALTO HOSPICIO, JERICO, CALLE SIETE",-20.2686722,-70.1049169
"IQUIQUE, JUAN MARTINEZ, VICENTE ZEGERS",-20.2307033,-70.1356692
POZO ALMONTE,-20.2570503,-69.7857064
"IQUIQUE, SOLDADO  PEDRO  PRADO, JOSE MIGUEL CARRERA",-20.2269962,-70.1354064
"IQUIQUE, AVDA. BULNES, AVDA. P. PRADO",-20.2201814,-70.1349026
"IQUIQUE, AVDA LA TIRANA, EL MONTE",-20.2543166,-70.1260602
"ALTO HOSPICIO, RAMON PEREZ OPAZO, LOS ALAMOS",-20.2666181,-70.1028585
POZO ALMONTE,-20.2570503,-69.7857064
"ALTO HOSPICIO, CALLE UNO, PASAJE UNO",-20.2561196,-70.1083565
"POZO ALMONTE, comercio/victoria, 0.0",-20.2570503,-69.7857064
"IQUIQUE, RAMIREZ, ORELLA",-20.2204813,-70.149581
"IQUIQUE, OBISPO LABBE, TARAPACA",-20.2158511,-70.1502751
"IQUIQUE, ZEGERS, 249.0",-20.2177736,-70.143625
"IQUIQUE, AVDA. A. PRAT, LOS MOLLES",-20.2307033,-70.1356692
"ALTO HOSPICIO, RUTA A-616, LUIS EMILIO RECABARREN",-20.2320384,-70.0334336
ALTO HOSPICIO,-20.2686722,-70.1049169
HUARA,-19.995924,-69.7712417
"IQUIQUE, AVDA. PRAT, PLAYA HUAYQUIQUE",-20.2798817,-70.1298027
POZO ALMONTE,-20.2570503,-69.7857064
"IQUIQUE, BULNES, JUAN MARTINEZ",-20.219616,-70.1454426
"IQUIQUE, GENARO GALLO, CESPEDES GONZALEZ",-20.2249004,-70.1370717
"POZO ALMONTE, aldunate/pampa germania, 0.0",-20.2581949,-69.7845984
"IQUIQUE, DIEGO PORTALES, ALONSO DE ERCILLA",-20.2309945,-70.131854
HUARA,-19.995924,-69.7712417
HUARA,-19.995924,-69.7712417
ALTO HOSPICIO,-20.2686722,-70.1049169
HUARA,-19.995924,-69.7712417
"IQUIQUE, ESMERALDA, PATRICIO LYNCH",-20.2154369,-70.1513951
ALTO HOSPICIO,-20.2686722,-70.1049169
ALTO HOSPICIO,-20.2686722,-70.1049169
"IQUIQUE, AVDA. A. PRAT, FTE. CASINO DE JUEGOS",-20.2484469,-70.1381101
POZO ALMONTE,-20.2570503,-69.7857064
"IQUIQUE, LAS ROSAS, LAS PASIONARIAS",-20.2374219,-70.1391931
"ALTO HOSPICIO, GABRIELA MISTRAL, SANTA MARIA",-20.2839611,-70.1044103
"IQUIQUE, AVDA. PRAT, ROTONDA CAVANCHA",-20.2307033,-70.1356692
"ALTO HOSPICIO, VOLCAN OJOS DEL SALADO, 3397.0",-20.2889808,-70.0922732
POZO ALMONTE,-20.2570503,-69.7857064
"IQUIQUE, CESPEDES GONZALEZ, AVDA. P. PRADO",-20.2250238,-70.1352451
"ALTO HOSPICIO, GABRIELA MISTRAL, RIO MAIPO",-20.2932518,-70.1078228
"ALTO HOSPICIO, ESMERALDA, GUINDALES",-20.266942,-70.1070489
POZO ALMONTE,-20.2570503,-69.7857064
POZO ALMONTE,-20.2570503,-69.7857064
"IQUIQUE, GRUMETE BOLADOS, 186.0",-20.2157738,-70.1552244
"ALTO HOSPICIO, LOS ALAMOS, LAS PARCELAS",-20.2686722,-70.1049169
"IQUIQUE, ESMERALDA, ELEUTERIO RAMIREZ",-20.2184918,-70.1494876
"IQUIQUE, OBISPO LABBE, LATORRE",-20.2157088,-70.1502676
PICA,,
"IQUIQUE, ARTURO FERNANDEZ, CESPEDES GONZALEZ",-20.2245126,-70.1445436
"IQUIQUE, AVDA. ARTURO PRAT, 2250.0",-20.2484469,-70.1381101
"IQUIQUE, DIEGO PORTALES, AVDA. A. PRAT",-20.2307033,-70.1356692
"IQUIQUE, SOTOMAYOR, AVDA. CIRCUNVALACION",-20.2134898,-70.1310453
"ALTO HOSPICIO, LOS ALMENDROS, LOS TAMARUGOS",-20.2678645,-70.1010891
"IQUIQUE, AVDA. LA TIRANA, EL MONTE",-20.2543166,-70.1260602
PICA,,
"ALTO HOSPICIO, VALLENAR, LA SERENA",-29.9058174,-71.2501308
HUARA,-19.995924,-69.7712417
ALTO HOSPICIO,-20.2686722,-70.1049169
"IQUIQUE, PEDRO LAGOS, FREDDY TABERNA",-20.2167985,-70.1548317
"IQUIQUE, AVDA. ARTURO PRAT, STGO. POLANCO",-20.2486089,-70.1382111
"IQUIQUE, DIEGO PORTALES, OSCAR BONILLA",-20.2297964,-70.1422898
"ALTO HOSPICIO, LOS ALAMOS, LOS MANZANOS",-20.2653728,-70.1015975
HUARA,-19.995924,-69.7712417
ALTO HOSPICIO,-20.2686722,-70.1049169
"ALTO HOSPICIO, AV. LOS AROMOS, 26.0",-20.2736545,-70.0937502
ALTO HOSPICIO,-20.2686722,-70.1049169
HUARA,-19.995924,-69.7712417
"ALTO HOSPICIO, LOS GUINDALES, LOS MANZANOS",-20.2633308,-70.10375
ALTO HOSPICIO,-20.2686722,-70.1049169
"IQUIQUE, AVDA. H. DE LA CONCEPCION, MALL LAS AMERICAS",-20.2307033,-70.1356692
"IQUIQUE, AVDA. GOMEZ CARREÑO, CERRO DRAGON",-20.2330057,-70.1302175
"ALTO HOSPICIO, SECTOR ZIG ZAG. A-616, 4.0",-20.2510389,-70.0928376
"IQUIQUE, AMUNATEGUI, OHIGGINS",-20.2186578,-70.1466761
"IQUIQUE, VALLE CENTRAL, 3174.0",-20.2465654,-70.1256326
ALTO HOSPICIO,-20.2686722,-70.1049169
"ALTO HOSPICIO, CALLE 77, CALLE 7",-20.2925516,-70.1069453
"IQUIQUE, LIBERTAD, GENARO GALLO",-20.2289249,-70.137476
ALTO HOSPICIO,-20.2686722,-70.1049169
ALTO HOSPICIO,-20.2686722,-70.1049169
"IQUIQUE, RAMIREZ, CESPEDES GONZALEZ",-20.2243019,-70.1497478
"IQUIQUE, OSCAR BONILLA, HERNAN FUENZALIDA",-20.2287073,-70.1418764
"ALTO HOSPICIO, LOS TAMARUGOS, LOS KIWIS",-20.268833,-70.1028797
POZO ALMONTE,-20.2570503,-69.7857064
"IQUIQUE, BULNES, SALVADOR ALLENDE",-20.2201543,-70.1353452
"IQUIQUE, M. BULNES, ARTURO FERNANDEZ",-20.2196748,-70.1443406
"IQUIQUE, VIVAR, ZEGERS",-20.2175284,-70.1487847
POZO ALMONTE,-20.2570503,-69.7857064
"ALTO HOSPICIO, LOS AROMOS, 29.0",-20.2556598,-70.1069637
"IQUIQUE, RUTA A-16, CHANAVAYITA",-20.2585155,-70.0726409
"IQUIQUE, ORELLA, 21 DE MAYO",-20.2208923,-70.1421601
"ALTO HOSPICIO, CALLE OCHO, CALLE VEINTE",-20.2947193,-70.1077046
"IQUIQUE, AVDA. ARTURO PRAT, VIVAR",-20.2255093,-70.1494647
"IQUIQUE, VIVAR, TARAPACA",-20.218536,-70.1488892
"IQUIQUE, BERNARDO OHIGGINS, ANIBAL PINTO",-20.2182824,-70.1529419
"IQUIQUE, GENARO GALLO, LOS GLADIOLOS",-20.2334817,-70.1379182
"IQUIQUE, VIVAR, MANUEL BULNES",-20.2194358,-70.1489677
"IQUIQUE, SOTOMAYOR, JUAN MARTINEZ",-20.2109821,-70.1445867
"IQUIQUE, PEDRO PRADO, PLAYA EL AGUILA",-20.25145,-70.1319383
"ALTO HOSPICIO, FRANCIA, GLADYS MARIN",-20.2686722,-70.1049169
PICA,,
"IQUIQUE, ZONA FRANCA, PUERTA CUATRO",-20.2307033,-70.1356692
"ALTO HOSPICIO, LOS CONDORES, LOS TAMARUGOS",-20.2714671,-70.1045706
"IQUIQUE, LATORRE, BARROS ARANA",-20.2167999,-70.1474162
"ALTO HOSPICIO, CIRCUNVALACION, SAN DONATO",-20.2798646,-70.1055245
"IQUIQUE, CIRCUMBALACIOM, ROTONDA EL PAMPINO",-20.2208561,-70.1319844
"ALTO HOSPICIO, LAS AMERICAS, CARMELA CARVAJAL",-20.2800542,-70.1007563
"IQUIQUE, TADEO HAENKE, ROTONDA CAVANCHA",-20.2319768,-70.1471435
"IQUIQUE, LOS ALGARROBOS, PJE. UNO",-20.2307033,-70.1356692
"IQUIQUE, AV. ARTURO PRAT, COLEGIO INGLES",-20.2228543,-70.151476
"IQUIQUE, AVDA. ARTURO PRAT, 2098.0",-20.2484469,-70.1381101
POZO ALMONTE,-20.2570503,-69.7857064
ALTO HOSPICIO,-20.2686722,-70.1049169
"IQUIQUE, ESMERALDA, JUAN MARTINEZ",-20.2193478,-70.1454167
"IQUIQUE, SALVADOR ALLENDE, MANUEL BULNES",-20.2201814,-70.1349026
"ALTO HOSPICIO, PAMPA UNION, TILIVICHE",-20.275428,-70.1057337
"IQUIQUE, SOTOMAYOR, RAMIREZ",-20.2107991,-70.1491654
PICA,,
"IQUIQUE, RAMIREZ, MANUEL RODRIGUEZ",-20.2233541,-70.1497193
"POZO ALMONTE, comercio, ARICA",-18.4320081,-70.2922694
"IQUIQUE, BULNES, JUAN MARTINEZ",-20.219616,-70.1454426
PICA,,
"IQUIQUE, GENARO GALLO, LAS ROSAS",-20.2373067,-70.139562
ALTO HOSPICIO,-20.2686722,-70.1049169
"ALTO HOSPICIO, LOS ALAMOS, LOS PARRONES",-20.2634645,-70.1013358
"IQUIQUE, ARTURO PEREZ CANTO, IGNACIO CARRERA PINTO",-20.2307033,-70.1356692
POZO ALMONTE,-20.2570503,-69.7857064
"IQUIQUE, AVDA. AEROPUERTO, TEDEO HAENKE",-20.2307033,-70.1356692
"IQUIQUE, SANTIAGO POLANCO, FRANCISCO VERGARA",-20.2471645,-70.1350603
"ALTO HOSPICIO, GABRIELA MISTRAL, PAULA JARAQUEMADA",-20.2822965,-70.1038013
"ALTO HOSPICIO, ALTO MOLLE, CALLE CUATRO",-20.2775307,-70.1021922
"IQUIQUE, AV. ARTURO PRAT, PLAYA CAVANCHA",-20.2318146,-70.1471027
"IQUIQUE, CERRO DRAGON, SANTIAGO POLANCO",-20.2460858,-70.1296584
ALTO HOSPICIO,-20.2686722,-70.1049169
"IQUIQUE, AV. ARTURO PRAT, ANIBAL PINTO",-20.2117876,-70.1528536
"IQUIQUE, LIBERTAD, AMUNATEGUI",-20.2176315,-70.1465983
"ALTO HOSPICIO, VOLCAN VILLARRICA, VOLCAN LICANCABUR",-20.2686722,-70.1049169
"ALTO HOSPICIO, GABRIELA MISTRAL, CANADA",-20.2853229,-70.1048561
"IQUIQUE, GENARO GALLO, AVDA. TADEO HAENKE",-20.2394749,-70.1403552
POZO ALMONTE,-20.2570503,-69.7857064
"IQUIQUE, INTERIOR TERMINAL AGROPECUARIO, AVDA. PROGRESO",-20.2307033,-70.1356692
"ALTO HOSPICIO, RAMON PEREZ OPAZO, LOS POMELOS",-20.2660119,-70.1036191
ALTO HOSPICIO,-20.2686722,-70.1049169
ALTO HOSPICIO,-20.2686722,-70.1049169
"ALTO HOSPICIO, LAS FRUTILLAS, 2845.0",-20.2651743,-70.105443
"ALTO HOSPICIO, LOS CONDORES, 3525.0",-20.2719484,-70.1029629
HUARA,-19.995924,-69.7712417
"ALTO HOSPICIO, LAS AMERICAS, SANTA MARIA",-20.2847174,-70.1022289
"IQUIQUE, CERRO DRAGON, RAMON PEREZ OPAZO",-20.253063,-70.128361
HUARA,-19.995924,-69.7712417
HUARA,-19.995924,-69.7712417
CAMINA,-19.3110655,-69.4269996
POZO ALMONTE,-20.2570503,-69.7857064
ALTO HOSPICIO,-20.2686722,-70.1049169
"IQUIQUE, INETRIOR RECINTOS ZOFRI, GALPON NRO. 05",-20.206958,-70.1404458
POZO ALMONTE,-20.2570503,-69.7857064
"IQUIQUE, PJE. PERU, ORELLA",-20.2208235,-70.1432206
"IQUIQUE, AVDA. H. DE LA CONCEPCION, CESPEDES GONZALEZ",-20.2307033,-70.1356692
"IQUIQUE, AVDA. LA TIRANA, CALLE CUATRO",-20.2543166,-70.1260602
"ALTO HOSPICIO, LOS AROMOS, 26.0",-20.2556598,-70.1069637
"ALTO HOSPICIO, RAMON PEREZ OPAZO, LOS ALAMOS",-20.2666181,-70.1028585
HUARA,-19.995924,-69.7712417
"ALTO HOSPICIO, MONTE LOS OLIVOS, 2893.0",-20.2572284,-70.1001033
"ALTO HOSPICIO, MACAYA, UJINA",-20.2721425,-70.1081136
"IQUIQUE, GENARO GALLO, ERNESTO RIQUELME",-20.2221154,-70.1367067
"ALTO HOSPICIO, LOS AROMOS, 4085.0",-20.2556598,-70.1069637
"ALTO HOSPICIO, SANTA TERESA, 4024.0",-20.2686722,-70.1049169
ALTO HOSPICIO,-20.2686722,-70.1049169
ALTO HOSPICIO,-20.2686722,-70.1049169
HUARA,-19.995924,-69.7712417
"IQUIQUE, AMUNATEGUI, OHIGGINS",-20.2186578,-70.1466761
POZO ALMONTE,-20.2570503,-69.7857064
ALTO HOSPICIO,-20.2686722,-70.1049169
COLCHANE,-19.2761393,-68.6388049
ALTO HOSPICIO,-20.2686722,-70.1049169
"POZO ALMONTE, camino alternativo, sector lugaya, poblado mamiña, 5.0",-20.2570503,-69.7857064
"IQUIQUE, AVDA. OHIGGINS, AVDA. PEDRO PRADO",-20.2193218,-70.1347013
"ALTO HOSPICIO, LOS ALAMOS, LOS NOGALES",-20.2646179,-70.1005485
"IQUIQUE, AVDA. AEROPUERTO, PJE. LAS MAGNOLIAS",-20.2361216,-70.1416768
PICA,,
"IQUIQUE, 21 DE MAYO, TARAPACA",-20.2189238,-70.1420816
"IQUIQUE, AVDA. AEROPUERTO, TADEO HEMKEE",-20.2307033,-70.1356692
POZO ALMONTE,-20.2570503,-69.7857064
"ALTO HOSPICIO, CIRCUNVALACION, PACHICA",-20.2661336,-70.1097684
"IQUIQUE, BULNES, RAMIREZ",-20.2193967,-70.1495306
"IQUIQUE, AVDA. P. PRADO, AVDA. CHIPANA",-20.2396655,-70.1345536
POZO ALMONTE,-20.2570503,-69.7857064
POZO ALMONTE,-20.2570503,-69.7857064
POZO ALMONTE,-20.2570503,-69.7857064
HUARA,-19.995924,-69.7712417
ALTO HOSPICIO,-20.2686722,-70.1049169
"IQUIQUE, AVDA. OHIGGINS, ARTURO FERNANDEZ",-20.2187948,-70.1443066
"IQUIQUE, TADEO HAENKE, AVDA. HEROES DE LA CONCEPCION",-20.2379949,-70.1442259
"ALTO HOSPICIO, PERALES, LAGUNAS",-20.2686722,-70.1049169
HUARA,-19.995924,-69.7712417
ALTO HOSPICIO,-20.2686722,-70.1049169
POZO ALMONTE,-20.2570503,-69.7857064
POZO ALMONTE,-20.2570503,-69.7857064
ALTO HOSPICIO,-20.2686722,-70.1049169
"IQUIQUE, RANCAGUA, AVDA. CHIPANA",-34.1710586,-70.7351926
"POZO ALMONTE, circunvalacion/salitrera iris, 0.0",-20.2561176,-69.7877202
ALTO HOSPICIO,-20.2686722,-70.1049169
ALTO HOSPICIO,-20.2686722,-70.1049169
ALTO HOSPICIO,-20.2686722,-70.1049169
"IQUIQUE, PJE. JUAN NOE, RIQUELME",-20.2307033,-70.1356692
"IQUIQUE, ZEGERS, A. FERNANDEZ",-20.2177736,-70.143625
"ALTO HOSPICIO, PAMPA UNION, ALTO MOLLE",-20.2764584,-70.1018494
"IQUIQUE, SOTOMAYOR, OBISPO LABBE",-20.2109056,-70.1502143
"IQUIQUE, J. MARTINEZ, ORELLA",-20.2208235,-70.1432206
IQUIQUE,-20.2307033,-70.1356692
ALTO HOSPICIO,-20.2686722,-70.1049169
"IQUIQUE, PLAYA HUAYQUIQUE, 5000.0",-20.2798817,-70.1298027
ALTO HOSPICIO,-20.2686722,-70.1049169
"ALTO HOSPICIO, CERRO TARAPACA, SECTOR LA PAMPA",-20.2686722,-70.1049169
"IQUIQUE, SALITRERA VICTORIA, PJE. SANTA CRUZ",-20.2049542,-70.1369169
POZO ALMONTE,-20.2570503,-69.7857064
ALTO HOSPICIO,-20.2686722,-70.1049169
"IQUIQUE, AVDA. RAMON PEREZ OPAZO, AVDA. SALVADOR ALLENDE",-20.2542691,-70.1314071
"IQUIQUE, LUIS JASPARD, SOTOMAYOR",-20.2118495,-70.1367064
"IQUIQUE, AVDA. LBERTADOR BDO. OHIGGINS, LUIS CRUZ MARTINEZ",-20.2191438,-70.1385965
"IQUIQUE, A. FERNANDEZ, BULNES",-20.2307033,-70.1356692
"ALTO HOSPICIO, LOS CONDORES, TARAPACA",-20.2686722,-70.1049169
"IQUIQUE, AVDA. A. FERNANDEZ, ORELLA",-20.2208235,-70.1432206
"IQUIQUE, BULNES, ARTURO FERNANDEZ",-20.2196748,-70.1443406
"ALTO HOSPICIO, VOLCAN SOCOMPA, 3400.0",-20.2879516,-70.0920185
"IQUIQUE, ERAZURIZ, PLAZA ARICA",-20.2132696,-70.1433258
"ALTO HOSPICIO, SANTA ROSA DE MOLLE, RICARDO LAGOS ESCOBAR",-20.2718999,-70.0889182
"ALTO HOSPICIO, LOS AROMOS, 4136.0",-20.2556598,-70.1069637
"IQUIQUE, AVDA. PROGRESO, 2DA. SUR",-20.2243231,-70.1331496
ALTO HOSPICIO,-20.2686722,-70.1049169
"ALTO HOSPICIO, LAS AMERICAS, NACIONES UNIDAS",-20.2686722,-70.1049169
"ALTO HOSPICIO, LOS CONDORES, IRIS",-20.2719484,-70.1029629
"IQUIQUE, FERROCARIL, JUAN MARTINEZ",-20.2086106,-70.1441502
"IQUIQUE, AVDA. PRAT, ROTONDA CAVANCHA",-20.2307033,-70.1356692
"IQUIQUE, AVDA. P. BRAVA, PEDRO GAMBONI",-20.2404258,-70.1374811
"ALTO HOSPICIO, RAMON PEREZ OPAZO, PAMPA UNION",-20.2776152,-70.0986886
ALTO HOSPICIO,-20.2686722,-70.1049169
"IQUIQUE, AVDA. PRAT, PAPAGALLO",-20.2307033,-70.1356692
"IQUIQUE, AVDA. PRAT, BARROS ARANA",-20.2175833,-70.1474318
"IQUIQUE, PATRICIO LYNCH, RIQUELME",-20.2212074,-70.1515192
"ALTO HOSPICIO, LA PAMPA, PAMPA UNION",-20.2748483,-70.1070925
ALTO HOSPICIO,-20.2686722,-70.1049169
POZO ALMONTE,-20.2570503,-69.7857064
ALTO HOSPICIO,-20.2686722,-70.1049169
"ALTO HOSPICIO, GUINDALES, ESMERALDA",-20.2652492,-70.1055102
"IQUIQUE, AVDA. PLAYA BRAVA, GENARO GALLO",-20.2422792,-70.1413978
"ALTO HOSPICIO, PAMPA UNION, LA PAMPA",-20.2686722,-70.1049169
"IQUIQUE, AVDA. A. PRAT, DIEGO PORTALES",-20.2307033,-70.1356692
HUARA,-19.995924,-69.7712417
"ALTO HOSPICIO, LOS ALAMOS, LAS PARCELAS",-20.2686722,-70.1049169
ALTO HOSPICIO,-20.2686722,-70.1049169
"IQUIQUE, RUTA A-16, ROTONDA EL PAMPINO",-20.2585155,-70.0726409
"IQUIQUE, OBISPO LABBE, M. BULNES",-20.219294,-70.150411
"IQUIQUE, ROTONDA EL PAMPINO, OHIGGINS",-20.2307033,-70.1356692
POZO ALMONTE,-20.2570503,-69.7857064
POZO ALMONTE,-20.2570503,-69.7857064
"IQUIQUE, AVDA. P. PRADO, AVDA. BULNES",-20.2201814,-70.1349026
IQUIQUE,-20.2307033,-70.1356692
"ALTO HOSPICIO, BRITANIA, 2249.0",-20.2686722,-70.1049169
"IQUIQUE, SIMON BOLIVAR, OBISPO LABBE",-20.2158511,-70.1502751
"POZO ALMONTE, VALLE QUISMA, MATILLA, 0.0",-20.2570503,-69.7857064
HUARA,-19.995924,-69.7712417
ALTO HOSPICIO,-20.2686722,-70.1049169
HUARA,-19.995924,-69.7712417
ALTO HOSPICIO,-20.2686722,-70.1049169
"IQUIQUE, AVDA. CIRCUNVALACION, 800.0",-20.2063726,-70.1306179
"ALTO HOSPICIO, LA PAMPA, SAN DONATO",-20.2768172,-70.1044794
"IQUIQUE, AVDA. BILBAO, CALLE CUATRO",-20.2307033,-70.1356692
ALTO HOSPICIO,-20.2686722,-70.1049169
"IQUIQUE, J.J.PEREZ, AVDA. H. DE LA CONCEPCION",-20.2307033,-70.1356692
HUARA,-19.995924,-69.7712417
"IQUIQUE, AVDA. P. PRADO, PLAYA EL AGUILA",-20.25145,-70.1319383
"IQUIQUE, AVDA. PEDRO PRADO, 2547.0",-20.2396655,-70.1345536
POZO ALMONTE,-20.2570503,-69.7857064
"IQUIQUE, TOMAS BONILLA, ESPAÑA",-20.2307033,-70.1356692
POZO ALMONTE,-20.2570503,-69.7857064
"IQUIQUE, AVDA. LA TIRANA, AVDA. CIRCUNVALACION",-20.231349,-70.1284471
"ALTO HOSPICIO, LA PAMPA, 3479.0",-20.2686722,-70.1049169
"IQUIQUE, OSCAR BONILLA, MOISES GONZALEZ",-20.2099445,-70.1398778
"ALTO HOSPICIO, LOS AROMOS, SIETE",-20.2556598,-70.1069637
HUARA,-19.995924,-69.7712417
"IQUIQUE, AVDA. M. BULNES, AVDA. P. PRADO",-20.2201814,-70.1349026
"IQUIQUE, BARROS ARANA, TARAPACA",-20.2175833,-70.1474318
"IQUIQUE, AVDA. ARTURO PRAT, AVDA. DIEGO PORTALES",-20.2307033,-70.1356692
"IQUIQUE, ORELLA, 21 DE MAYO",-20.2208923,-70.1421601
"IQUIQUE, AVDA. TADEO HAENKE, AVDA. LA TIRANA",-20.2382135,-70.1286667
"IQUIQUE, RIQUELME, PJE. JUAN PORTAL",-20.2219665,-70.1383028
"IQUIQUE, SOTOMAYOR, 2141.0",-20.2111333,-70.1416166
"IQUIQUE, CERTARIC, SALITRERA VICTORIA",-20.2049542,-70.1369169
POZO ALMONTE,-20.2570503,-69.7857064
"IQUIQUE, OHIGGINS, AVDA. PEDRO PRADO",-20.2193218,-70.1347013
POZO ALMONTE,-20.2570503,-69.7857064
"IQUIQUE, AVDA. HEROES DE LA CONCEPCION, AVDA. DIEGO PORTALES",-20.2301432,-70.1411798
"IQUIQUE, AVDA. LA TIRANA, AVDA CHIPANA",-20.2518219,-70.1260999
"IQUIQUE, GENARO GALLO, LOS GLADIOLOS",-20.2334817,-70.1379182
"IQUIQUE, AVDA. HEROES DE LA CONCEPCION, TOMAS BONILLA",-20.2276843,-70.1402925
"IQUIQUE, AVDA. BULNES, ARTURO FERNANDEZ",-20.2196748,-70.1443406
"ALTO HOSPICIO, COSTANERA, 2952.0",-20.2686722,-70.1049169
"ALTO HOSPICIO, LOS CONDORES, 3733.0",-20.2719484,-70.1029629
"IQUIQUE, LIBERTAD, GENARO GALLO",-20.2289249,-70.137476
"IQUIQUE, TADEO HAENKE, LA TIRANA",-20.2404198,-70.1372473
IQUIQUE,-20.2307033,-70.1356692
"ALTO HOSPICIO, EL SALITRE, LOS AROMOS",-20.2556598,-70.1069637
"IQUIQUE, GENARO GALLO, JOSE MIGUEL CARRERA",-20.2268367,-70.1372722
POZO ALMONTE,-20.2570503,-69.7857064
ALTO HOSPICIO,-20.2686722,-70.1049169
ALTO HOSPICIO,-20.2686722,-70.1049169
"IQUIQUE, AVDA. LA TIRANA, PROGRESO",-20.2543166,-70.1260602
ALTO HOSPICIO,-20.2686722,-70.1049169
"ALTO HOSPICIO, LOS AROMOS, 29.0",-20.2556598,-70.1069637
"ALTO HOSPICIO, JERUSALEM, 7.0",-20.2686722,-70.1049169
"IQUIQUE, PAMPA ENGAÑADORA, 2982.0",-20.2459994,-70.1338133
HUARA,-19.995924,-69.7712417
"IQUIQUE, SANTIAGO POLANCO, AVDA. PEDRO PRADO",-20.2468369,-70.1329274
ALTO HOSPICIO,-20.2686722,-70.1049169
"IQUIQUE, PEDRO GAMBONI, ANKEL NIELSER",-20.2307033,-70.1356692
"IQUIQUE, LATORRE, GENARO GALLO",-20.2175783,-70.1361277
POZO ALMONTE,-20.2570503,-69.7857064
"ALTO HOSPICIO, LOS PARRONES, LOS POMELOS",-20.2634645,-70.1013358
"IQUIQUE, RIQUELME, ARTURO FERNANDEZ",-20.2187948,-70.1443066
"IQUIQUE, AVDA. FCO. BILBAO, PLAYA  EL AGUILA",-20.251327,-70.1314193
"ALTO HOSPICIO, RAMON PEREZ OPAZO, LOS CONDORES",-20.2686722,-70.1049169
"IQUIQUE, AVDA. H. DE LA CONCEPCION, TADEO HANKE",-20.2307033,-70.1356692
"ALTO HOSPICIO, ESMERALDA, LOS GUINDALES",-20.266942,-70.1070489
ALTO HOSPICIO,-20.2686722,-70.1049169
ALTO HOSPICIO,-20.2686722,-70.1049169
ALTO HOSPICIO,-20.2686722,-70.1049169
"IQUIQUE, AVDA. FCO. BILBAO, CALLE 2",-20.2617337,-70.1290955
"IQUIQUE, AMUNATEGUI, VIDELA",-20.2102988,-70.145802
"IQUIQUE, 18 DE SEPTIEMBRE, SAN MARTIN",-20.2307033,-70.1356692
"ALTO HOSPICIO, LOS AROMOS, LOS POMELOS",-20.2648604,-70.1025795
"IQUIQUE, AVDA. FCO. BILBAO, MOTEL FLAMENCO",-20.2617337,-70.1290955
COLCHANE,-19.2761393,-68.6388049
"ALTO HOSPICIO, LOS AROMOS, 29.0",-20.2556598,-70.1069637
"ALTO HOSPICIO, CALLE SIETE, PASAJE 17",-20.2951378,-70.1064321
"IQUIQUE, MANUEL BULNES, SALVADOR ALLENDE",-20.2201543,-70.1353452
"IQUIQUE, 21 DE MAYO, BOLIVAR",-20.2307033,-70.1356692
"ALTO HOSPICIO, LOS ALAMOS, LOS PERALES",-20.2663718,-70.1002038
"ALTO HOSPICIO, LOS ALAMOS, LOS ALMENDROS",-20.2665891,-70.1018295
"POZO ALMONTE, PAMPA GERMANIA/ALDUNATE, 0.0",-20.2581949,-69.7845984
"IQUIQUE, AVDA. PADRE HURTADO, AVDA. ARTURO PRAT",-20.2625059,-70.130789
"IQUIQUE, AVDA. HEROES DE LA CONCEPCION, INTERIOR ESTACIONAMIENTOS MALL LAS AMERICAS",-20.2327283,-70.1427897
ALTO HOSPICIO,-20.2686722,-70.1049169
"ALTO HOSPICIO, LA PAMPA, RAMON PEREZ OPAZO",-20.2686722,-70.1049169
"IQUIQUE, ARTURO FERNANDEZ, ZEGERS",-20.2307033,-70.1356692
ALTO HOSPICIO,-20.2686722,-70.1049169
"IQUIQUE, THOMPSON, 12 DE FEBRERO",-20.2154172,-70.1410495
"ALTO HOSPICIO, LOS CONDORES, 3330.0",-20.2719484,-70.1029629
ALTO HOSPICIO,-20.2686722,-70.1049169
"ALTO HOSPICIO, GABRIELA MISTRAL, CARMELA CARVAJAL",-20.2806769,-70.1037814
"ALTO HOSPICIO, RAMON PEREZ OPAZO, LOS ALAMOS",-20.2666181,-70.1028585
"ALTO HOSPICIO, GABRIELA MISTRAL, ARGENTINA",-20.2686722,-70.1049169
"IQUIQUE, AVDA. PEDRO PRADO, MANUEL BULNES",-20.2201814,-70.1349026
HUARA,-19.995924,-69.7712417
POZO ALMONTE,-20.2570503,-69.7857064
POZO ALMONTE,-20.2570503,-69.7857064
"IQUIQUE, TARAPACA, 18 DE SEPTIEMBRE",-20.2146045,-70.1429999
"ALTO HOSPICIO, SANTA ROSA, SANTA JIMENA",-20.2783619,-70.0963835
HUARA,-19.995924,-69.7712417
"ALTO HOSPICIO, LOS AROMOS, 2926.0",-20.2556598,-70.1069637
"IQUIQUE, PATRICIO LYNCH, ESMERALDA",-20.2154369,-70.1513951
ALTO HOSPICIO,-20.2686722,-70.1049169
"IQUIQUE, SERRANO, ANIBAL PINTO",-20.2131798,-70.1528114
"IQUIQUE, PLAYA EL AGUILA, CERRO DRAGON",-20.2507313,-70.1286646
"ALTO HOSPICIO, ESMERALDA, 2929.0",-20.2690149,-70.1044822
"ALTO HOSPICIO, LOS ALAMOS, 3870.0",-20.258896,-70.0855442
ALTO HOSPICIO,-20.2686722,-70.1049169
"IQUIQUE, AVDA. LATIRANA, 2860.0",-20.2543166,-70.1260602
"ALTO HOSPICIO, LOS AROMOS, CALLE UNO",-20.2686722,-70.1049169
ALTO HOSPICIO,-20.2686722,-70.1049169
HUARA,-19.995924,-69.7712417
"IQUIQUE, ERRAZURIZ, 953.0",-20.223578,-70.1440132
"ALTO HOSPICIO, SALITRERA PROGRESO, CIRCUNVALACION",-20.2797076,-70.1041736
ALTO HOSPICIO,-20.2686722,-70.1049169
"ALTO HOSPICIO, PAMPA PERDIZ, RAMON PEREZ OPAZO",-20.2719297,-70.0999454
"IQUIQUE, CENTENARIO, PUERTA 7 ZOFRI",-20.2076084,-70.1426511
"ALTO HOSPICIO, VALPARAISO, 15.0",-33.0473128,-71.6127458
"IQUIQUE, ELEUTERIO RAMIREZ, AVDA. BERNARDO OHIGGINS",-20.2184918,-70.1494876
ALTO HOSPICIO,-20.2686722,-70.1049169
"ALTO HOSPICIO, LOS AVELLANOS, LOS DAMASCOS",-20.2665772,-70.1067161
"IQUIQUE, SOTOMAYOR, JUAN MARTINEZ",-20.2109821,-70.1445867
"IQUIQUE, ESTACIONAMIENTO, INTERIOR MALL ZOFRI",-20.2051079,-70.1383784
HUARA,-19.995924,-69.7712417
"ALTO HOSPICIO, LAS AMERICAS, SANTA MARIA",-20.2847174,-70.1022289
"IQUIQUE, ORELLA, 18 DE SEPTIEMBRE",-20.2208235,-70.1432206
"IQUIQUE, PLAYA EL AGUILA, 2466.0",-20.251327,-70.1314193
"ALTO HOSPICIO, LA PAMPA, SANTA ROSA",-20.2686722,-70.1049169
"IQUIQUE, TARAPACA, BARROS ARANA",-20.2175833,-70.1474318
"ALTO HOSPICIO, LAS AMERICAS, 3919.0",-20.2901059,-70.1042119
"IQUIQUE, LUIS JASPARD, PUERTA NRO. 12 ZOFRI",-20.2111272,-70.1362149
"ALTO HOSPICIO, LOS AROMOS, 29.0",-20.2556598,-70.1069637
"IQUIQUE, RANCAGUA, PJE. SALITRERA CONSTANCIA",-20.2458034,-70.1314119
HUARA,-19.995924,-69.7712417
HUARA,-19.995924,-69.7712417
"ALTO HOSPICIO, AVDA. LOS ALAMOS, AVDA. LOS AROMOS",-20.2662507,-70.1025442
"IQUIQUE, AVDA. A. PRAT, SANTIAGO POLANCO",-20.2484469,-70.1381101
"IQUIQUE, PATRICIO LYNCH, BOLIVAR",-20.2121701,-70.1513327
CAMINA,-19.3110655,-69.4269996
"ALTO HOSPICIO, AVDA. LOS AROMOS, PJE. CINCO",-20.273488,-70.0931295
"IQUIQUE, CAMPO DEPORTES, PEDRO PRADO",-20.2225972,-70.1350708
"ALTO HOSPICIO, AVDA. ESMERALDA, AVDA. LA PAMPA",-20.2708561,-70.1023597
"IQUIQUE, AVDA. AEROPUERTO, LOS LIRIOS",-20.2307033,-70.1356692
"IQUIQUE, SANTA CRUZ, MAPOCHO",-20.2307033,-70.1356692
HUARA,-19.995924,-69.7712417
ALTO HOSPICIO,-20.2686722,-70.1049169
"IQUIQUE, AVDA. PEDRO PRADO, MANUEL CASTRO RAMOS",-20.244863,-70.1334046
"ALTO HOSPICIO, AV. LAS AMERICAS, AV. SANTA MARIA",-20.2847174,-70.1022289
"IQUIQUE, AVDA. CERRO DRAGON, CALLE 5",-20.2455526,-70.1292691
"IQUIQUE, ISLUGA, 4129.0",,
"IQUIQUE, ORELLA, 12 DE FEBRERO",-20.220917,-70.1415272
ALTO HOSPICIO,-20.2686722,-70.1049169
IQUIQUE,-20.2307033,-70.1356692
HUARA,-19.995924,-69.7712417
"ALTO HOSPICIO, AV. LA PAMPA, PJE. RINCONADA",-20.2704188,-70.1013379
"IQUIQUE, CESPEDES GONZALEZ, AMUNATEGUI",-20.2244134,-70.14698
"IQUIQUE, CESPEDES GONZALEZ, GALVARINO GUERRA",-20.2249719,-70.1360341
"ALTO HOSPICIO, CALLE LOS PARRONES, CALLE LOS ALAMOS",-20.2634645,-70.1013358
"IQUIQUE, JOSE MIGUEL CARRERA, AVDA. CIRCUNVALACION",-20.2266274,-70.1421023
ALTO HOSPICIO,-20.2686722,-70.1049169
ALTO HOSPICIO,-20.2686722,-70.1049169
"ALTO HOSPICIO, CALLE ESMERALDA, 3542.0",-20.2690149,-70.1044822
ALTO HOSPICIO,-20.2686722,-70.1049169
POZO ALMONTE,-20.2570503,-69.7857064
"IQUIQUE, AVDA. CIRCUNVALACION, MANAZANA F ZOFRI",-20.2307033,-70.1356692
"ALTO HOSPICIO, CALLE DOS, 3334.0",-20.2748883,-70.1038276
"IQUIQUE, AVDA. H. DE LA CONCEPCION, CESPEDES GONZALEZ",-20.2307033,-70.1356692
"ALTO HOSPICIO, AV. RAMON PEREZ OPAZO, 2924.0",-20.2701972,-70.1009113
"IQUIQUE, ARMADA DE CHILE, AVDA. PEDRO PRADO",-20.2396655,-70.1345536
HUARA,-19.995924,-69.7712417
"ALTO HOSPICIO, AV. RAMON PEREZ OPAZO, AV. LOS CONDORES",-20.272945,-70.1005126
"ALTO HOSPICIO, LOS MANGOS, 2832.0",-20.2662365,-70.106397
IQUIQUE,-20.2307033,-70.1356692
IQUIQUE,-20.2307033,-70.1356692
IQUIQUE,-20.2307033,-70.1356692
POZO ALMONTE,-20.2570503,-69.7857064
HUARA,-19.995924,-69.7712417
"ALTO HOSPICIO, CALLE UNO, PJE. 6",-20.2597341,-70.104613
"IQUIQUE, MANUEL BULNES, AVDA. PEDRO PRADO",-20.2201814,-70.1349026
"ALTO HOSPICIO, AV. RAMON PEREZ OPAZO, AV. LA PAMPA",-20.2700618,-70.100866
ALTO HOSPICIO,-20.2686722,-70.1049169
"ALTO HOSPICIO, CALLE DOS, 3215.0",-20.2865953,-70.096973
"IQUIQUE, AVDA. HEROES DE LA CONCEPCION, 2555.0",-20.2265534,-70.1400001
"ALTO HOSPICIO, CALLE LOS AROMOS, PJE. TRES",-20.25608,-70.1062971
"IQUIQUE, AMUNATEGUI, VIDELA",-20.2102988,-70.145802
"IQUIQUE, MANUEL BULNES, ORELLA",-20.2307033,-70.1356692
"IQUIQUE, AVDA. ARTURO PRAT, PLAYA CHIPANA",-20.2484469,-70.1381101
"IQUIQUE, RAMIREZ, CESPEDES GONZALEZ",-20.2243019,-70.1497478
"IQUIQUE, JUAN MARTINEZ, TOMAS BONILLA",-20.2274454,-70.1461888
"IQUIQUE, GENARO GALLO, LAS ROZAS",-20.2373067,-70.139562
"ALTO HOSPICIO, CALLE 9, PJE. 36",-20.288148,-70.1002356
"IQUIQUE, AVDA. ARTURO PRAT, TOMAS BONILLA",-20.2273588,-70.1480139
"ALTO HOSPICIO, AV. LOS AROMOS, AV. LOS ALAMOS",-20.2662507,-70.1025442
POZO ALMONTE,-20.2570503,-69.7857064
"ALTO HOSPICIO, CALLE GABRIELA MISTRAL, PJE. GUINEA",-20.2896028,-70.1064049
"IQUIQUE, VIVAR, THOMPSON",-20.2148742,-70.1485661
IQUIQUE,-20.2307033,-70.1356692
HUARA,-19.995924,-69.7712417
ALTO HOSPICIO,-20.2686722,-70.1049169
"IQUIQUE, LAS ROSAS, GENARO GALLO",-20.2373067,-70.139562
IQUIQUE,-20.2307033,-70.1356692
IQUIQUE,-20.2307033,-70.1356692
ALTO HOSPICIO,-20.2686722,-70.1049169
"IQUIQUE, CESPEDES GONZALEZ, ARTURO PEREZ CANTO",-20.2248356,-70.1380641
"ALTO HOSPICIO, CALLE TILIVICHI, LAS AVELLANAS",-20.2701428,-70.1084922
"IQUIQUE, JUAN MARTINEZ, THOMPSON",-20.2307033,-70.1356692
"ALTO HOSPICIO, AV. LAS AMERICAS, CALLE CANADA",-20.2686722,-70.1049169
"IQUIQUE, VIVAR, 1247.0",-20.218536,-70.1488892
"IQUIQUE, AVDA. ARTURO PRAT, DIEGO PORTALES",-20.2307033,-70.1356692
"ALTO HOSPICIO, CALLE ALEMANIA, CALLE SUIZA",-20.2686722,-70.1049169
"IQUIQUE, LAGUNA VERDE, 3157.0",-20.2463704,-70.1253627
ALTO HOSPICIO,-20.2686722,-70.1049169
HUARA,-19.995924,-69.7712417
ALTO HOSPICIO,-20.2686722,-70.1049169
"ALTO HOSPICIO, AV. LOS ALAMOS, AV. LOS CONDORES",-20.2705889,-70.1068267
"ALTO HOSPICIO, AV. RAMON PEREZ OPAZO, AV. LA PAMPA",-20.2700618,-70.100866
"IQUIQUE, SOTOMAYOR, 700.0",-20.2111333,-70.1416166
ALTO HOSPICIO,-20.2686722,-70.1049169
"ALTO HOSPICIO, AV. LOS ALAMOS, PJE. UNO",-20.2662507,-70.1025442
"ALTO HOSPICIO, LOS KIWIS, 2904.0",-20.2670851,-70.1046047
"IQUIQUE, AVDA. PLAYA BRAVA, INTERIOR SERVICENTRO SHELL",-20.242199,-70.142499
"ALTO HOSPICIO, LOS DATILES, LOS NOGALES",-20.2620837,-70.1037992
"POZO ALMONTE, BALMACEDA S/N, 0.0",-20.2601124,-69.7865351
"ALTO HOSPICIO, PJE. ISABEL RIQUELME, AVDA. LAS AMERICAS",-20.2824421,-70.10138
POZO ALMONTE,-20.2570503,-69.7857064
"IQUIQUE, SALITRERA VICTORIA, SANTA CRUZ",-20.2049658,-70.1357505
"IQUIQUE, AVDA. PEDRO PRADO, AVDA. CHIPANA",-20.2396655,-70.1345536
"IQUIQUE, ARTURO PEREZ CANTO, MANUEL RODRIGUEZ",-20.2238191,-70.1379526
"ALTO HOSPICIO, LOS CONDORES, TARAPACA",-20.2686722,-70.1049169
POZO ALMONTE,-20.2570503,-69.7857064
"ALTO HOSPICIO, A-616, AVDA. QUINCE",-20.2513639,-70.0977749
"IQUIQUE, MANUEL BULNES, JUAN MARTINEZ",-20.219616,-70.1454426
"IQUIQUE, AVDA. ARTURO PRAT, SAGASCA",-20.245836,-70.1401573
"ALTO HOSPICIO, AVDA. LOS ALAMOS, CALLE TILIVICHE",-20.2711253,-70.1077139
"ALTO HOSPICIO, CATALINA DE LOS RIOS, MARCELA PAZ",-20.281341,-70.1020065
"ALTO HOSPICIO, LOS AROMOS, VITERBIO ACEITUNO",-20.2686722,-70.1049169
"ALTO HOSPICIO, LA PAMPA, SALITRERA TORDOYA",-20.2782814,-70.098854
"IQUIQUE, AVDA. ARTURO PRAT, ROTONDA CAVANCHA",-20.2330224,-70.1469024
"IQUIQUE, TARAPACA, VIVAR",-20.218536,-70.1488892
"ALTO HOSPICIO, LOS AROMOS, SAN FRANCISCO",-20.2786793,-70.0901496
"ALTO HOSPICIO, LOS PEPINOS, LOS AROMOS",-20.2556598,-70.1069637
HUARA,-19.995924,-69.7712417
"ALTO HOSPICIO, LOS AROMOS, LAGUNAS",-20.2556598,-70.1069637
"ALTO HOSPICIO, ELOIZA DIAZ, 3010.0",-20.2832345,-70.1026805
"POZO ALMONTE, ALIANZA/STA LAURA, 0.0",-20.2570503,-69.7857064
"IQUIQUE, AVDA. LA TIRANA, PARQUE EL SENDERO",-20.2543166,-70.1260602
COLCHANE,-19.2761393,-68.6388049
"IQUIQUE, TADEO HAENKE, AVDA. CERRO DRAGON",-20.2386682,-70.1296108
"ALTO HOSPICIO, NACIONES UNIDAS, GLADYS MARIN",-20.2686722,-70.1049169
"IQUIQUE, AVDA. LA TIRANA, CALLE 6",-20.2543166,-70.1260602
"IQUIQUE, ANIBAL PINTO, ZEGERS",-20.2171191,-70.1529907
ALTO HOSPICIO,-20.2686722,-70.1049169
"ALTO HOSPICIO, RANCAGUA, 14.0",-34.1710586,-70.7351926
"IQUIQUE, PATRICIO LYNCH, SOTOMAYOR",-20.2154369,-70.1513951
HUARA,-19.995924,-69.7712417
"IQUIQUE, CESPEDES GONZALEZ, ARTURO FERNANDEZ",-20.2245126,-70.1445436
"IQUIQUE, THOMPSON, GENARO GALLO",-20.2157202,-70.135764
"ALTO HOSPICIO, LAS PARCELAS, 4.0",-20.2686722,-70.1049169
ALTO HOSPICIO,-20.2686722,-70.1049169
"IQUIQUE, TARAPACA, BARROS ARANA",-20.2175833,-70.1474318
"IQUIQUE, ANIBAL PINTO, SAN MARTIN",-20.2167578,-70.1528862
"ALTO HOSPICIO, LOS TAMARUGOS, LOS ALMENDROS",-20.2678645,-70.1010891
"IQUIQUE, PLAYA EL AGUILA, AVDA. PEDRO PRADO",-20.25145,-70.1319383
ALTO HOSPICIO,-20.2686722,-70.1049169
"IQUIQUE, PEDRO GAMBONI, LAS ROZAS",-20.2382195,-70.1367007
ALTO HOSPICIO,-20.2686722,-70.1049169
"ALTO HOSPICIO, NACIONES UNIDAS, MACHALI",-34.1793831,-70.6545835
ALTO HOSPICIO,-20.2686722,-70.1049169
"ALTO HOSPICIO, COSTANERA, 2956.0",-20.2686722,-70.1049169
ALTO HOSPICIO,-20.2686722,-70.1049169
"ALTO HOSPICIO, LAS AMERICAS, SETENTA Y SIETE",-20.2944257,-70.1017501
"IQUIQUE, PLAYA EL AGUILA, AVDA. PEDRO PRADO",-20.25145,-70.1319383
"IQUIQUE, THOMPSON, 741.0",-20.2307033,-70.1356692
"IQUIQUE, COLOCOLO, BERNARDINO GUERRA",-20.2296258,-70.1370293
"ALTO HOSPICIO, CATORCE, QUINCE",-20.2686722,-70.1049169
"IQUIQUE, GENARO GALLO, TOMAS BONILLA",-20.2278116,-70.1373664
POZO ALMONTE,-20.2570503,-69.7857064
"ALTO HOSPICIO, LOS AROMOS, PJE. TRES",-20.25608,-70.1062971
POZO ALMONTE,-20.2570503,-69.7857064
HUARA,-19.995924,-69.7712417
COLCHANE,-19.2761393,-68.6388049
"IQUIQUE, VIVAR, ZEGERS",-20.2175284,-70.1487847
"IQUIQUE, BERNARDO OHIGGINS, AVDA. PEDRO PRADO",-20.2193218,-70.1347013
"IQUIQUE, AMUNATEGUI, ZEGERS",-20.2176315,-70.1465983
"ALTO HOSPICIO, SANTA PAULA, 4416.0",-20.2768892,-70.0936461
"IQUIQUE, AVDA. LA TIRANA, SECTOR KAMIKASE",-20.2543166,-70.1260602
"IQUIQUE, TOMAS BONILLA, PJE. MARTIN LUTERO",-20.2276758,-70.1407143
"IQUIQUE, AVDA. H. DE LA CONCEPCION, MANUEL BULNES",-20.2197049,-70.1437707
"ALTO HOSPICIO, ESMERALDA, LA PAMPA",-20.2686722,-70.1049169
"IQUIQUE, AVDA. CIRCUNVALACION, SALITRERA VICTORIA",-20.2048845,-70.131308
"ALTO HOSPICIO, CERRO HERMOSO, 20.0",-20.2712196,-70.0868321
"ALTO HOSPICIO, CIRCUNVALACION, SAN DONATO",-20.2798646,-70.1055245
ALTO HOSPICIO,-20.2686722,-70.1049169
"IQUIQUE, AVDA. HEROES DE LA CONCEPCION, HONCENTER SODIMAC",-20.2312393,-70.1420364
"ALTO HOSPICIO, LOS AROMOS, 29.0",-20.2556598,-70.1069637
"ALTO HOSPICIO, TALCA, 4525.0",-35.4231882,-71.6496958
"IQUIQUE, AVDA. ANIBAL PINTO, ESTACIONAMIENTO PLAZA PRAT",-20.2134563,-70.1527113
"IQUIQUE, AVDA. LA TIRANA, CASTRO RAMOS",-20.2444412,-70.1282904
"IQUIQUE, JOSE JOAQUIN PEREZ, ARTURO FERNANDEZ",-20.2225978,-70.1444612
"ALTO HOSPICIO, RAMON PEREZ OPAZO, CHACA",-20.2692348,-70.1013055
"ALTO HOSPICIO, LAS AMERICAS, CUBA",-20.2901059,-70.1042119
"ALTO HOSPICIO, ALTO MOLLE, 3344.0",-20.2770148,-70.1020269
